address,bank_name,schedule,geo_lat,geo_lon
"г. Сергиев Посад, ул.Кооперативная, д.2",Авангард,Круглосуточно,56.3019633,38.1358278
"г. Сергиев Посад, ул.Кооперативная, д.2",Банк ВТБ,Доступен в режиме работы места установки,56.3019633,38.1358278
"г. Сергиев Посад, ул.Вознесенская, д.32а",Банк Уралсиб,Круглосуточно,56.303856,38.133214
"г. Сергиев Посад, ул.Вознесенская, д.32а",Банк «Открытие»,Круглосуточно,56.303856,38.133214
"г. Сергиев Посад, ул.Вознесенская, д.32а",Московский Кредитный Банк,Круглосуточно,56.303856,38.133214
"г. Сергиев Посад, ул.1-й Ударной Армии, д.12",Банк Уралсиб,Круглосуточно,56.3162089,38.1326194
"г. Сергиев Посад, ул.1-й Ударной Армии, д.12",Банк ВТБ,Круглосуточно,56.3162089,38.1326194
"г. Сергиев Посад, просп. Красной Армии, д.4",Банк Уралсиб,Круглосуточно,56.2950646,38.1284399
"г. Сергиев Посад, ш.Новоугличское, д.46",Банк «Открытие»,Круглосуточно,56.3264408,38.1334781
"г. Сергиев Посад, просп. Красной Армии, д.91",Банк «Открытие»,Доступен в режиме работы места установки,56.301886,38.1294463
"г. Сергиев Посад, просп. Красной Армии, д.91",Почта Банк,Круглосуточно,56.301886,38.1294463
"г. Сергиев Посад, просп. Красной Армии, д.3",Банк «Открытие»,Круглосуточно,56.295475,38.127182
"г. Сергиев Посад, ш.Московское, д.58а",Банк ВТБ,Круглосуточно,56.2742111,38.1208063
"г. Сергиев Посад, ш.Ярославское, д.16",Банк ВТБ,Круглосуточно,56.3405359,38.1696876
"г. Сергиев Посад, просп. Красной Армии, д.236",Банк ВТБ,Круглосуточно,56.33065,38.1554651
"г. Сергиев Посад, ш.Новоугличское, д.53а",Банк ВТБ,Круглосуточно,56.3253959,38.1330447
"г. Сергиев Посад, ул.Мира, д.3д",Банк ВТБ,Доступен в режиме работы места установки,56.299895,38.179945
"г. Сергиев Посад, ул.Кирпичная, д.27а",Банк ВТБ,Круглосуточно,56.2943965,38.1552327
"г. Сергиев Посад, просп. Красной Армии, д.5а",Банк ВТБ,Круглосуточно,56.296318,38.12791
"г. Сергиев Посад, просп. Красной Армии, д.171",Банк ВТБ,Круглосуточно,56.3161614,38.1368031
"г. Сергиев Посад, ш.Новоугличское, д.85",Банк ВТБ,Круглосуточно,56.3398477,38.1245663
"г. Сергиев Посад, ш.Новоугличское, д.85",Московский Кредитный Банк,Круглосуточно,56.3398477,38.1245663
"г. Сергиев Посад, Свято-Троицкая Сергиева Лавра",Банк ВТБ,Доступен в режиме работы места установки,56.3062548,38.1502661
"г. Сергиев Посад, ул.Карла Маркса, д.4",Газпромбанк,Круглосуточно,56.3062548,38.1502661
"г. Сергиев Посад, просп. Красной Армии, д.190",Кредит Европа Банк,Круглосуточно,56.3182023,38.1399941
"Московская обл., г.Сергиев Посад, ш.Новоугличское, д.85",Московский Кредитный Банк,Круглосуточно,56.3398477,38.1245663
"г. Сергиев Посад, пл.Вокзальная, д.1",Московский Кредитный Банк,Круглосуточно,56.3027394,38.1358605
"г. Сергиев Посад, просп. Красной Армии, д.143",Московский Кредитный Банк,Круглосуточно,56.314422,38.135316
"г. Сергиев Посад, ул.Вифанская, д.29",Московский Областной Банк,Круглосуточно,56.309309,38.144084
"г. Сергиев Посад, ул.1-я Рыбная, д.18/2",Московский Областной Банк,Круглосуточно,56.3043147,38.1361225
"г. Сергиев Посад, ул.Глинки, д.8а",Почта Банк,Круглосуточно,56.3280773,38.1489388
"г. Сергиев Посад, просп. Красной Армии, д.182",Почта Банк,Доступен в режиме работы места установки,56.3160873,38.1380386
"г. Сергиев Посад, ш.Новоугличское, д.50",Почта Банк,Доступен в режиме работы места установки,56.3288097,38.1323455
"г. Сергиев Посад, просп. Красной Армии, д.139",Промсвязьбанк,Круглосуточно,56.3137511,38.1353881
"г. Сергиев Посад, ул.Вознесенская, д.55",Промсвязьбанк,Доступен в режиме работы места установки,56.3029612,38.1345932
"г. Сергиев Посад, ул.Птицеградская, д.2 Б",Промсвязьбанк,Круглосуточно,56.29814,38.174706
"г. Сергиев Посад, ул.Кооперативная, д.3",Райффайзенбанк,Доступен в режиме работы места установки,56.301314,38.13435
"г. Сергиев Посад, просп. Красной Армии, д.133",Абсолют Банк,Круглосуточно,56.3120535,38.1339687
"г. Сергиев Посад, ул.Центральная, д.1",Авангард,Круглосуточно,56.2903732,38.1524966
"г. Мытищи, просп. Новомытищинский, д.76",Автоторгбанк,Круглосуточно,55.904841,37.725604
"г. Мытищи, ул.Коммунистическая, д.1",Альфа-Банк,Круглосуточно,55.891757,37.7480977
"г. Мытищи, ул.Коммунистическая, д.1",Русский Стандарт,Круглосуточно,55.891757,37.7480977
"г. Мытищи, ул.Красноармейская, вл.39, стр. 1",Альфа-Банк,Доступен в режиме работы места установки,55.8946766,37.7054948
"Московская область, г. Мытищи, б-р Ветеранов, 2",Альфа-Банк,пн.-вс.: 09:00-21:00,55.9092021,37.7200231
"Московская область, г. Мытищи, Летная ул., 27А",Альфа-Банк,пн.-вс.: 08:00-23:00,55.9110151,37.7242407
"Московская область, г. Мытищи, Олимпийский пр-кт, 13, стр. 1",Альфа-Банк,пн.-вс.: 09:00-22:00,55.9200196,37.7600657
"Московская область, г. Мытищи, Новомытищинский пр-кт, 49, корп. 1",Альфа-Банк,пн.-вс.: 10:00-22:00,55.8988413,37.7203077
"Московская область, г. Мытищи, Ярославское шоссе , 103",Альфа-Банк,"пн.-пт.: 09:00-21:00 сб., вс.: выходной",55.911971,37.779952
"Московская область, г. Мытищи, Шараповский пр-д, 3А",Альфа-Банк,Круглосуточно,55.9174237,37.7631023
"Московская область, г. Мытищи, Олимпийский пр-кт, 19, корп. 1",Альфа-Банк,Круглосуточно,55.9236058,37.7570119
"Московская область, г. Мытищи, ул. Мира, 26А",Банк Зенит,Круглосуточно,55.915291,37.727868
"Московская область, г. Мытищи, Коммунистическая ул., 1",Банк «Открытие»,пн.-вс.: 09:00-21:00 пн.-вс.: 10:00-22:00,55.891757,37.7480977
"г. Мытищи, ул.Мира, д.24/5",Банк «Открытие»,Круглосуточно,55.915715,37.728227
"г. Мытищи, ш.Ярославское, вл.2, стр. 1",Банк «Открытие»,Круглосуточно,55.902873,37.760899
"г. Мытищи, ш.Волковское, стр. 42",Банк «Открытие»,Круглосуточно,55.914363,37.673537
"г. Мытищи, ул.Терешковой, д.3",Банк «Открытие»,Доступен в режиме работы места установки,55.9052519,37.7326747
"г. Мытищи, ул.Селезнева, д.33",Банк ВТБ,Круглосуточно,55.8918544,37.7276845
"г. Мытищи, ул.Селезнева, д.33",Почта Банк,Круглосуточно,55.8918544,37.7276845
"г. Мытищи, пер. 9-й Ленинский, д.11",Банк ВТБ,Круглосуточно,55.8877262,37.734913
"г. Мытищи, ш.Осташковское, стр. 1а",Банк ВТБ,Круглосуточно,55.905275,37.668579
"г. Мытищи, ул.Воровского, д.1",Банк ВТБ,Круглосуточно,55.9186473,37.7616542
"г. Мытищи, ул.Воровского, д.1",Московский Кредитный Банк,Круглосуточно,55.9186473,37.7616542
"г. Мытищи, ул.Воровского, д.1",СберБанк,Доступен в режиме работы места установки,55.9186473,37.7616542
"г. Мытищи, ш.Волковское, д.25",Банк ВТБ,Круглосуточно,55.923922,37.711958
"г. Мытищи, просп. Олимпийский, д.38а",Банк ВТБ,Круглосуточно,55.9260358,37.7551003
"г. Мытищи, ш.Ярославское, д.141",Банк ВТБ,Круглосуточно,55.909398,37.773062
"г. Мытищи, ул.Трудовая, д.31",Банк ВТБ,Круглосуточно,55.8905919,37.7134916
"г. Мытищи, ш.Ярославское, 20-й км, д.2",Банк ВТБ,Круглосуточно,55.902873,37.760899
"г. Мытищи, просп. Олимпийский, д.11, корп. 1",Банк ВТБ,Круглосуточно,55.9156609,37.7697637
"г. Мытищи, ш.Ярославское, д.100",Банк ВТБ,Круглосуточно,55.909463,37.778056
"г. Мытищи, ул.Колпакова, стр. 24а",Банк ВТБ,Круглосуточно,55.918639,37.7301295
"г. Мытищи, ул.Колонцова, д.1",Банк ВТБ,Круглосуточно,55.914443,37.7623
"г. Мытищи, ул.1-я Пролетарская, д.12",Банк ВТБ,Круглосуточно,55.9229279,37.769381
"г. Мытищи, ул.3-я Крестьянская, д.25",Банк ВТБ,Круглосуточно,55.8921535,37.7141029
"г. Мытищи, ул.Веры Волошиной, д.12",Банк ВТБ,Круглосуточно,55.8930896,37.7256445
"г. Мытищи, ул.Мира, д.51",Банк ВТБ,Круглосуточно,55.9198998,37.7084704
"г. Мытищи, ул.Мира, д.51",СберБанк,Круглосуточно,55.9198998,37.7084704
"г. Мытищи, ул.Мира, стр. 32/2",Газпромбанк,Круглосуточно,55.9212131,37.7193084
"г. Мытищи, ул.Мира, стр. 32/2",Райффайзенбанк,Круглосуточно,55.9212131,37.7193084
"г. Мытищи, просп. Олимпийский, д.21",Газпромбанк,Круглосуточно,55.9250727,37.7541398
"г. Мытищи, просп. Олимпийский, д.10",Газпромбанк,Доступен в режиме работы места установки,55.9215963,37.7612474
"г. Мытищи, Шараповский пр-д, д.2",Кредит Европа Банк,Круглосуточно,55.9165402,37.7589629
"г. Мытищи, Шараповский пр-д, д.2",СберБанк,Круглосуточно,55.9165402,37.7589629
"г. Мытищи, Шараповский пр-д, д.2",СберБанк,Доступен в режиме работы места установки,55.9165402,37.7589629
"г. Мытищи, пер. 1-й Рупасовский, д.5",Кредит Европа Банк,Круглосуточно,55.9258875,37.7515861
"г. Мытищи, Коммунистическая, д.1",Крокус-Банк,Круглосуточно,55.891757,37.7480977
"г. Мытищи, ул.Сукромка, д.7",Московский Кредитный Банк,Круглосуточно,55.9036245,37.7133696
"г. Мытищи, просп. Новомытищинский, д.30",Московский Кредитный Банк,Круглосуточно,55.9119598,37.7384852
"г. Мытищи, ул.Семашко, д.35",Московский Кредитный Банк,Круглосуточно,55.892033,37.7258233
"г. Мытищи, ш.Осташковское, стр. 1",Московский Кредитный Банк,Круглосуточно,55.905275,37.668579
"г. Мытищи, ул.Мира, д.15/12",Московский Кредитный Банк,Круглосуточно,55.9126532,37.7318288
"г. Мытищи, ул.Белобородова, д.6",Московский Кредитный Банк,Доступен в режиме работы места установки,55.9196879,37.742875
"г. Мытищи, ул.Летная, д.17",Московский Кредитный Банк,Круглосуточно,55.9109955,37.7268682
"Московская обл., г.Мытищи, ул.Селезнева, д.33",Московский Кредитный Банк,Круглосуточно,55.8918544,37.7276845
"Московская обл., г.Мытищи, ш.Осташковское, д.1",Московский Кредитный Банк,Круглосуточно,55.899361,37.668201
"г. Мытищи, ш.Осташковское, вл.2, стр. 1",Московский Кредитный Банк,Доступен в режиме работы места установки,55.898694,37.674005
"г. Мытищи, ул.Мира, стр. 51",Московский Кредитный Банк,Круглосуточно,55.9198998,37.7084704
"г. Мытищи, ш.Ярославское, вл.2в, стр. 3",Почта Банк,Круглосуточно,55.902873,37.760899
"г. Мытищи, ш.Осташковское, д.1, корп. 15",Почта Банк,Круглосуточно,55.896625,37.683104
"г. Мытищи, Шараповский пр-д, вл.2",Почта Банк,Круглосуточно,55.9165402,37.7589629
"г. Мытищи, ул.Юбилейная, д.3, корп. 1",Почта Банк,Круглосуточно,55.91516,37.722711
"г. Мытищи, пос. Нагорное, ул.Центральная, вл.2, стр. 1",Промсвязьбанк,Круглосуточно,55.9040002,37.6287198
"г. Мытищи, ул.Коммунистическая, д.10, корп. 1",Райффайзенбанк,Круглосуточно,55.8889199,37.7416537
"г. Мытищи, ул.Рождественская, д.11",Райффайзенбанк,Круглосуточно,55.9187432,37.7563096
"г. Мытищи, ш.Осташковское, д.1",Райффайзенбанк,Круглосуточно,55.899361,37.668201
"г. Мытищи, ш.Осташковское, д.1",СберБанк,Круглосуточно,55.899361,37.668201
"г. Мытищи, просп. Новомытищинский, д.3/12",Райффайзенбанк,Круглосуточно,55.915549,37.7524115
"Московская обл., г.Мытищи, ул.Мира, д.13/11",Росбанк,Доступен в режиме работы места установки,55.912254,37.732647
"г. Мытищи, 2-й Щелковский пр-д, д.4",Росбанк,Доступен в режиме работы места установки,55.922744,37.7830292
"г. Мытищи, просп. Олимпийский, д.23",Росбанк,Доступен в режиме работы места установки,55.9251778,37.7528768
"г. Мытищи, ул.Юбилейная, д.27",Россельхозбанк,Доступен в режиме работы места установки,55.9073772,37.7107572
"г. Мытищи, ул.Веры Волошиной, д.20",Россельхозбанк,Доступен в режиме работы места установки,55.894545,37.719908
"г. Мытищи, ул.Комарова, д.2, корп. 3",СберБанк,Доступен в режиме работы места установки,55.917935,37.7464885
"г. Мытищи, Шараповский пр-д, д.2/3",СберБанк,Круглосуточно,55.9165402,37.7589629
"г. Мытищи, бул. Ветеранов, стр. 2",СберБанк,Круглосуточно,55.9092021,37.7200231
"Московская область, г. Мытищи, бул. Ветеранов, стр. 2",СберБанк,Доступен в режиме работы места установки,55.9092021,37.7200231
"Московская область, г. Мытищи, ул. Юбилейная, стр. 38",СберБанк,Доступен в режиме работы места установки,55.910357,37.713593
"Московская область, г. Мытищи, ул. Карла Маркса, д. 4",СберБанк,Доступен в режиме работы места установки,55.9151348,37.7685927
"Московская область, г. Мытищи, ул. Комарова, 2",СберБанк,Доступен в режиме работы места установки,55.919615,37.7464412
"Московская область, г. Мытищи, шоссе Волковское, д. 12",СберБанк,Доступен в режиме работы места установки,55.934669,37.742519
"Московская область, г. Мытищи, ул. 1-я Пролетарская, стр. 12",СберБанк,Доступен в режиме работы места установки,55.9221848,37.7675748
"Московская область, г. Мытищи, просп. Олимпийский, д. 29",СберБанк,Доступен в режиме работы места установки,55.9288934,37.7517379
"Московская область, г. Мытищи, ул. Сукромка 5",СберБанк,Доступен в режиме работы места установки,55.9026011,37.7159273
"Московская область, г. Мытищи, ул. Кирпичная, д. 1",СберБанк,Доступен в режиме работы места установки,55.9144102,37.7597137
"Московская область, г. Мытищи, шоссе Осташковское, д. 1 Б, стр. 1",СберБанк,Доступен в режиме работы места установки,55.898452,37.682844
"Московская область, г. Мытищи, ул. 4-я Парковая, д. 18",Абсолют Банк,Доступен в режиме работы места установки,55.8840842,37.7541965
"Московская область, г. Мытищи, ул. Коммунистическая, д. 10, корп. 1",Авангард,Доступен в режиме работы места установки,55.8889199,37.7416537
"Московская область, г. Мытищи, шоссе Осташковское, 1",Альфа-Банк,Доступен в режиме работы места установки,55.899361,37.668201
"Московская область, г. Мытищи, просп. Новомытищинский, 34/2",Альфа-Банк,Доступен в режиме работы места установки,55.9110882,37.7368006
"Московская область, г. Мытищи, ул. Юбилейная, 3, корп. 1",Банк «Открытие»,Доступен в режиме работы места установки,55.91516,37.722711
"Московская область, г. Мытищи, просп. Новомытищинский, 82",Банк «Открытие»,Доступен в режиме работы места установки,55.902237,37.722666
"Московская область, г. Мытищи, ул. Академика Каргина, 21",Банк ВТБ,Доступен в режиме работы места установки,55.9167041,37.77446
"Московская область, г. Мытищи, пл. Вокзальная, 2",Банк ВТБ,Доступен в режиме работы места установки,55.9133418,37.7619621
"Московская область, г. Мытищи, ул. Силикатная, 39",Банк ВТБ,Доступен в режиме работы места установки,55.9402702,37.7787705
"Московская область, г. Мытищи, просп. Олимпийский, 21",Банк ВТБ,Доступен в режиме работы места установки,55.9250727,37.7541398
"Московская область, г.Мытищи, пр-д Шараповский, вл.2",Банк ВТБ,Доступен в режиме работы места установки,55.9165402,37.7589629
"г. Люберцы, ул.Красная, д.4",Банк ВТБ,Круглосуточно,55.6818405,37.8917566
"г. Люберцы, ул.Побратимов, д.7",Банк ВТБ,Круглосуточно,55.6921862,37.8964085
"г. Люберцы, ул.Побратимов, д.7",Кредит Европа Банк,Круглосуточно,55.6921862,37.8964085
"Московская обл., г. Люберцы, Октябрьский пр-кт, 146",Банк ВТБ,Круглосуточно,55.6798618,37.8894962
"Московская область, г. Люберцы, Смирновская ул., 16/179",Банк ВТБ,Круглосуточно,55.679765,37.8949279
"г. Люберцы, ул.Красная, д.1",Банк ВТБ,Круглосуточно,55.6817084,37.8885377
"г. Люберцы, ул.Красная, д.1",Кредит Европа Банк,Круглосуточно,55.6817084,37.8885377
"г. Люберцы, ул.Красная, д.1",СберБанк,Круглосуточно,55.6817084,37.8885377
"г. Люберцы, ул.Калинина, д.4",Газпромбанк,Круглосуточно,55.6901437,37.8753034
"г. Люберцы, просп. Октябрьский, д.146",Газпромбанк,Круглосуточно,55.6798618,37.8894962
"г. Люберцы, просп. Октябрьский, д.146",Почта Банк,Круглосуточно,55.6798618,37.8894962
"г. Люберцы, ул.Инициативная, д.3а",Кредит Европа Банк,Круглосуточно,55.686624,37.892699
"г. Люберцы, ш.Новорязанское, 22-й км, вл.5/2",Московский Кредитный Банк,Доступен в режиме работы места установки,55.6416978,37.919213
"г. Люберцы, ш.Новорязанское, 22-й км, вл.5/2",Банк ВТБ,Круглосуточно,55.6416978,37.919213
"г. Люберцы, ул.Инициативная, д.12в",Московский Кредитный Банк,Круглосуточно,55.682666,37.899059
"г. Люберцы, ш.Новорязанское, 23-й км, стр. 15",Московский Кредитный Банк,Доступен в режиме работы места установки,55.6416978,37.919213
"г. Люберцы, просп. Октябрьский, д.366",Московский Кредитный Банк,Доступен в режиме работы места установки,55.6631531,37.9105517
"г. Люберцы, просп. Октябрьский, д.366",СберБанк,Круглосуточно,55.6631531,37.9105517
"г. Люберцы, ш.Егорьевское, д.1",Московский Кредитный Банк,Круглосуточно,55.6589683,37.9296361
"г. Люберцы, ул.Кирова, д.3",Московский Кредитный Банк,Доступен в режиме работы места установки,55.6905542,37.8635456
"г. Люберцы, просп. Октябрьский, д.181",Московский Кредитный Банк,Круглосуточно,55.6787559,37.8949454
"г. Люберцы, просп. Октябрьский, д.380д",Почта Банк,Круглосуточно,55.660673,37.913379
"г. Люберцы, просп. Октябрьский, д.125",Почта Банк,Круглосуточно,55.6827416,37.8865112
"г. Люберцы, ул.Котельническая, д.14",Почта Банк,Доступен в режиме работы места установки,55.6713967,37.8978563
"г. Люберцы, ш.Новорязанское, д.7",Почта Банк,Круглосуточно,55.6698682,37.8713134
"Московская обл., г.Люберцы, ш.Новорязанское, д.17",Почта Банк,Круглосуточно,55.6553913,37.9067563
"Московская обл., г.Люберцы, ул.Красная, д.1",Почта Банк,Круглосуточно,55.6817084,37.8885377
"Московская обл., г.Люберцы, ш.Новорязанское, д.7",Промсвязьбанк,Доступен в режиме работы места установки,55.6698682,37.8713134
"г. Люберцы, просп. Октябрьский, д.133",Промсвязьбанк,Круглосуточно,55.6817927,37.8879214
"г. Люберцы, ул.Митрофанова, д.2",Промсвязьбанк,Круглосуточно,55.6878957,37.8913356
"г. Люберцы, п.Калинина, д.49, корп. 2",Райффайзенбанк,Круглосуточно,55.6896126,37.8759619
"г. Люберцы, ул.8 Марта, д.57",Райффайзенбанк,Круглосуточно,55.704509,37.890175
"г. Люберцы, просп. Октябрьский, д.409а",Райффайзенбанк,Круглосуточно,55.6595989,37.9171528
"г. Люберцы, просп. Октябрьский, д.25",Райффайзенбанк,Круглосуточно,55.6939862,37.8650462
"г. Люберцы, ул.Воинов-Интернационалистов, д.3",Райффайзенбанк,Круглосуточно,55.6961908,37.9020616
"г. Люберцы, просп. Октябрьский, д.91",Росбанк,Доступен в режиме работы места установки,55.6896227,37.871442
"г. Люберцы, ул.Красногорская, д.21, корп. 1",Россельхозбанк,Доступен в режиме работы места установки,55.6908817,37.8899764
"г. Люберцы, ул.Воинов-Интернационалистов, д.10",СберБанк,Доступен в режиме работы места установки,55.6953279,37.9008566
"г. Люберцы, просп. Октябрьский, д.211",СберБанк,Доступен в режиме работы места установки,55.6769996,37.9001697
"г. Люберцы, ул.Смирновская, д.16",СберБанк,Круглосуточно,55.6796729,37.8950522
"г. Люберцы, ул.Юбилейная, д.13а",СберБанк,Доступен в режиме работы места установки,55.6691566,37.8753044
"г. Люберцы, ул.3-е Почтовое отделение, д.40",СберБанк,Доступен в режиме работы места установки,55.6758641,37.8750309
"г. Люберцы, ш.Новорязанское, д.1а",СберБанк,Круглосуточно,55.6764547,37.8585705
"г. Люберцы, просп. Октябрьский, д.111/119",СберБанк,Доступен в режиме работы места установки,55.687923,37.874565
"г. Люберцы, ул.Инициативная, д.76в",СберБанк,Круглосуточно,55.683468,37.91301
"г. Люберцы, просп. Октябрьский, д.112",СберБанк,Круглосуточно,55.6858758,37.8764693
"г. Люберцы, ш.Новорязанское, д.5/2",Кредит Европа Банк,Круглосуточно,55.664583,37.883492
"г. Люберцы, ш.Новорязанское, д.17",Банк ВТБ,Круглосуточно,55.6553913,37.9067563
"г. Люберцы, просп. Октябрьский, д.49",Банк ВТБ,Доступен в режиме работы места установки,55.6920099,37.8679568
"Московская область, г. Люберцы, ул. Комсомольская, 15",Банк ВТБ,Доступен в режиме работы места установки,55.6784435,37.8832734
"Московская область, г.Люберцы, ул.Красная, 4",Московский Кредитный Банк,Доступен в режиме работы места установки,55.6818405,37.8917566
"Московская область, г. Люберцы, ул. Красная, 1",Банк ВТБ,Доступен в режиме работы места установки,55.6817084,37.8885377
"Московская область, г. Люберцы, пос. Калинина, д. 49, корп. 2",Банк ВТБ,Доступен в режиме работы места установки,55.6896126,37.8759619
"Московская область, г. Люберцы, просп. Октябрьский, 123",Банк ВТБ,Доступен в режиме работы места установки,55.687794,37.87759
"Московская область, г. Люберцы, ул. 8 Марта, 61",Райффайзенбанк,Доступен в режиме работы места установки,55.705387,37.893131
"Московская область, г. Люберцы, ул. 3-е Почтовое Отделение, 65",Банк ВТБ,Доступен в режиме работы места установки,55.682887,37.8656059
"Московская область, г. Люберцы, просп. Октябрьский, д. 112",Абсолют Банк,Доступен в режиме работы места установки,55.6858758,37.8764693
"Московская область, г. Люберцы, просп. Комсомольский, 17",Авангард,Доступен в режиме работы места установки,55.6944611,37.9078343
"Московская область, г. Люберцы, ул. Льва Толстого, 17",Альфа-Банк,Доступен в режиме работы места установки,55.7012394,37.8970178
"Московская область, г. Люберцы, шоссе Новорязанское, д. 3",Альфа-Банк,Доступен в режиме работы места установки,55.674848,37.8608439
г. Железнодорожный ул. Автозаводская 36,Альфа-Банк,9:00 - 20:00,55.727577,38.011933
"Московская область, Железнодорожный, Советская улица, 60",Газпромбанк,07:00 - 23:00,55.7499711,38.0461665
Московская обл. Железнодорожный Привокзальная пл. 2,Банк Уралсиб,00:00 - 00:00,55.7519643,38.0089289
"Московская область, Железнодорожный, Пролетарская улица, 2к2",Банк «Открытие»,09.00 - 22.00,55.750282,38.00683
"Московская область, Железнодорожный, Пролетарская улица, 7",Банк ВТБ,00:00 - 00:00,55.744674,38.0089626
"Московская область, Железнодорожный, Центральная улица, 41к1",Банк ВТБ,09.00 - 21.00,55.7503974,37.9574165
"Московская область, Железнодорожный, Пролетарская улица, 1/2",Банк ВТБ,08.00 - 24.00,55.749719,38.009597
"Московская область, Железнодорожный, Саввинское шоссе, 4к1",Банк ВТБ,00:00 - 00:00,55.7436668,38.0124299
"Московская область, Железнодорожный, Автозаводская улица, 52",Банк ВТБ,00:00 - 00:00,55.7284717,38.0145972
"Московская область, Железнодорожный, Леоновское шоссе, 2",Газпромбанк,00:00 - 00:00,55.7646627,37.9622521
"Московская область, Железнодорожный, Пролетарская улица, 2/2",Газпромбанк,9:00 - 22:00,55.750282,38.00683
г. Железнодорожный ул. Пролетарская 7,Газпромбанк,9:00 - 20:30,55.744674,38.0089626
"Московская обл., г.Одинцово, ул.Молодежная, д.48",Газпромбанк,Круглосуточно,55.6779118,37.2725952
"Московская обл., г.Одинцово, ш.Можайское, д.159",Кредит Европа Банк,Круглосуточно,55.6866927,37.3057314
"Московская обл., г.Одинцово, ш.Можайское, д.159",Почта Банк,Круглосуточно,55.6866927,37.3057314
"Московская область, г. Одинцово, ул. Чистяковой, д. 1",Московский Кредитный Банк,пн.-вс.: 09:00-20:00,55.6953928,37.3333165
"Московская область, г. Одинцово, Советская ул., 9",Московский Кредитный Банк,пн.-вс.: 10:00-21:00,55.6735232,37.2769671
"Московская область, г. Одинцово, Триумфальная ул., 1А",Московский Кредитный Банк,пн.-вс.: 09:00-22:00,55.657906,37.232716
"Московская область, г. Одинцово, Можайское шоссе , 76А",Московский Кредитный Банк,Круглосуточно,55.682691,37.295005
"г. Одинцово, ул.Маршала Неделина, д.2",Московский Кредитный Банк,Круглосуточно,55.6798575,37.2690012
"Московская обл., г.Одинцово, ш.Минское, 25-й км",Московский Кредитный Банк,Круглосуточно,55.6789455,37.263686
"г. Одинцово, ш.Можайское, д.112а",Московский Кредитный Банк,Круглосуточно,55.6851794,37.3028367
"г. Одинцово, ш.Можайское, д.112а",Банк «Открытие»,Круглосуточно,55.6851794,37.3028367
"г. Одинцово, ул.Советская, д.9",Московский Кредитный Банк,Круглосуточно,55.6735232,37.2769671
"г. Одинцово, ш.Красногорское, д.15",Московский Кредитный Банк,Круглосуточно,55.6834852,37.2695105
"г. Одинцово, ш.Красногорское, д.15",Банк Уралсиб,Круглосуточно,55.6834852,37.2695105
"г. Одинцово, ул.Молодежная, д.46",Московский Кредитный Банк,Доступен в режиме работы места установки,55.6772475,37.2710511
"г. Одинцово, ул.Молодежная, д.46",Альфа-Банк,Круглосуточно,55.6772475,37.2710511
"г. Одинцово, ул.Комсомольская, д.1",Московский Кредитный Банк,Доступен в режиме работы места установки,55.667263,37.2829305
"г. Одинцово, ул.Маковского, д.2а",Московский Кредитный Банк,Круглосуточно,55.670732,37.280956
"г. Одинцово, ул.Маковского, д.2а",Банк Уралсиб,Круглосуточно,55.670732,37.280956
"г. Одинцово, ул.Свободы, д.1",Московский Кредитный Банк,Круглосуточно,55.672702,37.279968
"г. Одинцово, ул.Свободы, д.1",Банк ВТБ,Круглосуточно,55.672702,37.279968
"г. Одинцово, ш.Можайское, д.81",Московский Кредитный Банк,Круглосуточно,55.6790692,37.2835173
"г. Одинцово, ул.Неделина, д.8",Московский Кредитный Банк,Круглосуточно,55.6792271,37.2669541
"г. Одинцово, ш.Можайское, д.153а",Московский Кредитный Банк,Круглосуточно,55.6861469,37.3031419
"г. Одинцово, Транспортный пр-д, д.5",Московский Кредитный Банк,Доступен в режиме работы места установки,55.6655296,37.2782616
"Московская обл., г.Одинцово, трасса М1 «Беларусь», 6,9 км, стр. 1",Московский Кредитный Банк,Круглосуточно,55.6789455,37.263686
"г. Одинцово, ул.Озерная, д.115",Московский Кредитный Банк,Круглосуточно,55.6500845,37.2560409
"г. Одинцово, пл.Привокзальная, д.1а",Московский Кредитный Банк,Круглосуточно,55.6710175,37.2772745
"г. Одинцово, пл.Привокзальная, д.1а",Райффайзенбанк,Круглосуточно,55.6710175,37.2772745
"г. Одинцово, ш.Минское, 24-й км",Московский Кредитный Банк,Круглосуточно,55.6789455,37.263686
"г. Одинцово, ул.Чистяковой, д.1",Московский Кредитный Банк,Круглосуточно,55.6953928,37.3333165
"г. Одинцово, ул.Чистяковой, д.1",Банк Уралсиб,Круглосуточно,55.6953928,37.3333165
"г. Одинцово, ул.Маршала Бирюзова, д.17",Почта Банк,Круглосуточно,55.682422,37.268792
"Московская обл., г.Одинцово, ул.Луговая, д.4",Почта Банк,Доступен в режиме работы места установки,55.6849911,37.3315423
"г. Одинцово, ш.Можайское, д.29а",Почта Банк,Круглосуточно,55.671077,37.264867
"г. Одинцово, ул.Советская, д.5а",Почта Банк,Круглосуточно,55.672732,37.277821
"г. Одинцово, ул.Южная, д.4",Промсвязьбанк,Круглосуточно,55.6614183,37.2589309
"г. Одинцово, ул.Говорова, д.163",Райффайзенбанк,Круглосуточно,55.6908402,37.3038483
"г. Одинцово, ул.Говорова, д.163",Банк «Открытие»,Круглосуточно,55.6908402,37.3038483
"г. Одинцово, ул.Союзная, д.9",Райффайзенбанк,Круглосуточно,55.6716325,37.2906284
"г. Одинцово, ш.Можайское, д.71",Райффайзенбанк,Круглосуточно,55.6779,37.281234
"г. Одинцово, ул.Чистяковой, д.3",Альфа-Банк,Круглосуточно,55.6943188,37.3314289
"г. Одинцово, ул.Маковского, д.16",Банк Уралсиб,Круглосуточно,55.6648636,37.2827432
"г. Одинцово, бул. Любы Новоселовой, д.17",Банк Уралсиб,Круглосуточно,55.6760002,37.2605696
"г. Одинцово, ул.Маршала Жукова, д.28",Банк Уралсиб,Круглосуточно,55.6795092,37.2632397
"г. Одинцово, ул.Молодежная, д.15",Банк «Открытие»,Круглосуточно,55.6763444,37.2648805
"г. Одинцово, ул.Внуковская, д.11",Банк «Открытие»,Круглосуточно,55.6546607,37.281344
"г. Одинцово, ул.Яскино, д.30",Банк ВТБ,Круглосуточно,55.6626948,37.2672786
"г. Одинцово, 9-й микрорайон, ул.Белорусская, д.3",Банк ВТБ,Круглосуточно,55.6704285,37.0998728
"г. Одинцово, ш.Можайское, д.22",Банк ВТБ,Круглосуточно,55.6753443,37.2793524
"г. Одинцово, ш.Можайское, д.22",Альфа-Банк,Доступен в режиме работы места установки,55.6753443,37.2793524
"г. Одинцово, ул.Маршала Бирюзова, д.15",Банк ВТБ,Круглосуточно,55.682899,37.267193
"г. Одинцово, ул.Баковская, д.5",Банк ВТБ,пн.—вс.: 07:00—24:00,55.678265,37.3001848
"г. Одинцово, ш.Можайское, д.151",Банк ВТБ,Круглосуточно,55.685985,37.302506
"г. Одинцово, ш.Можайское, д.119",Банк ВТБ,Доступен в режиме работы места установки,55.681666,37.289535
"г. Одинцово, ул.Комсомольская, д.4",Банк ВТБ,Доступен в режиме работы места установки,55.666486,37.2821256
"г. Одинцово, ул.Маршала Жукова, д.32",Авангард,Доступен в режиме работы места установки,55.6800173,37.2662407
"г. Одинцово, ш.Можайское, д.80а",Альфа-Банк,Круглосуточно,55.6837872,37.2974465
"г. Одинцово, ул.Восточная, д.19",Банк «Открытие»,Круглосуточно,55.6702897,37.3079861
"г. Одинцово, ул.Восточная, д.17а",Банк «Открытие»,Круглосуточно,55.6716,37.306423
"Московская область, г. Жуковский, ул. Баженова, 2А",Банк ВТБ,пн.-вс.: 09:00-22:00,55.6045775,38.0820884
"Московская область, г. Жуковский, ул. Наркомвод, 3",Банк ВТБ,Круглосуточно,55.5618782,38.1183478
"г. Жуковский, ул.Чкалова, д.2а",Банк ВТБ,Круглосуточно,55.5984918,38.1237539
"г. Жуковский, ул.Гагарина, д.58",Банк ВТБ,Круглосуточно,55.609106,38.08996
"г. Жуковский, ул.Амет-Хан Султана, д.7а",Банк ВТБ,Доступен в режиме работы места установки,55.5847429,38.1360512
"г. Жуковский, ул.Гудкова, д.3а",Банк ВТБ,Круглосуточно,55.5949141,38.0939306
"г. Жуковский, ул.Баженова, д.11",Газпромбанк,Круглосуточно,55.6055017,38.0738273
"г. Жуковский, ул.Гагарина, д.67",Газпромбанк,Круглосуточно,55.608317,38.090814
"г. Жуковский, ул.Ломоносова, д.18/11",Кредит Европа Банк,Доступен в режиме работы места установки,55.59631,38.1179239
"г. Жуковский, ул.Чкалова, д.31",Московский Кредитный Банк,Доступен в режиме работы места установки,55.5941726,38.1264209
"г. Жуковский, ул.Гагарина д.66",Банк ВТБ,Круглосуточно,55.607845,38.09394
"г. Жуковский, ул.Жуковского, д.1",Банк ВТБ,Круглосуточно,55.5973166,38.1118118
"г. Жуковский, ул.Гудкова, д.2a",Банк ВТБ,Круглосуточно,55.5977488,38.0908284
"г. Жуковский, ул.Фрунзе, д.1",Интерпрогрессбанк,Круглосуточно,55.5983135,38.1275028
"г. Жуковский, ул.Энергетическая, д.17",Интерпрогрессбанк,Круглосуточно,55.602687,38.1186204
"г. Жуковский, ул.Фрунзе, д.23",Кредит Европа Банк,Доступен в режиме работы места установки,55.595253,38.1149601
"г. Жуковский, ул.Туполева, д.92",Московский Кредитный Банк,Доступен в режиме работы места установки,55.581159,38.144228
"г. Жуковский, ул.Жуковского, д.9",Московский Кредитный Банк,Круглосуточно,55.5989562,38.1182586
"г. Жуковский, ул.Ломоносова, д.4",Московский Кредитный Банк,Круглосуточно,55.5899375,38.1233134
"г. Жуковский, наб. Циолковского, д.5",Московский Кредитный Банк,Доступен в режиме работы места установки,55.5990326,38.091867
"г. Долгопрудный, ш.Лихачевское, д.14, корп. 1",Московский Кредитный Банк,Круглосуточно,55.9480615,37.492411
"г. Долгопрудный, ул.Первомайская, д.5",Московский Кредитный Банк,Круглосуточно,55.929182,37.520653
"г. Долгопрудный, ул.Первомайская, д.5",Альфа-Банк,Доступен в режиме работы места установки,55.929182,37.520653
"Московская область, г. Долгопрудный, Лихачeвский пр-кт, 64",Московский Кредитный Банк,"пн.-пт.: круглосуточно сб., вс.: выходной",55.9311483,37.4941517
"Московская область, г. Долгопрудный, ул. Дирижабельная, 23",Почта Банк,пн.-вс.: 10:00-21:00,55.9462494,37.5059484
"г. Долгопрудный, ул.Спортивная, д.3",Почта Банк,Доступен в режиме работы места установки,55.9444904,37.4973264
"г. Долгопрудный, мкр. Шереметьевский, ул.Южная, д.1, стр. 33",Почта Банк,Круглосуточно,55.9756646,37.4949745
"г. Долгопрудный, просп. Пацаева, д.9",Райффайзенбанк,Круглосуточно,55.9477252,37.499341
"г. Долгопрудный, просп. Пацаева, д.9",Альфа-Банк,Круглосуточно,55.9477252,37.499341
"г. Долгопрудный, мкр. Хлебниково, ш.Новое, д.1а",Абсолют Банк,Круглосуточно,55.974332,37.517886
"г. Долгопрудный, пл.Собина, д.1",Абсолют Банк,Доступен в режиме работы места установки,55.932913,37.5148419
"г. Долгопрудный, просп. Лихачевский, д.8",Альфа-Банк,Круглосуточно,55.9128914,37.495496
"г. Долгопрудный, просп. Лихачевский, д.64",Альфа-Банк,Круглосуточно,55.9311483,37.4941517
"г. Долгопрудный, ул.Московская, д.58, корп. 2",Альфа-Банк,Доступен в режиме работы места установки,55.9611446,37.5267099
"г. Долгопрудный, просп. Ракетостроителей, д.4",Альфа-Банк,Круглосуточно,55.9353028,37.5111471
"г. Долгопрудный, ул.Первомайская, д.33",Альфа-Банк,Круглосуточно,55.939444,37.515641
"г. Долгопрудный, Транспортный пр-д, д.3",Альфа-Банк,Круглосуточно,55.917268,37.49806
"Московская обл., г.Долгопрудный, просп. Лихачевский, д.64",Альфа-Банк,Круглосуточно,55.9311483,37.4941517
"г. Долгопрудный, просп. Пацаева, д.7, корп. 11",Банк «Открытие»,Круглосуточно,55.945912,37.499597
"г. Лобня, Краснополянский пр-д, д.2",Банк «Открытие»,Доступен в режиме работы места установки,56.0082744,37.4397918
"г. Лобня, Краснополянский пр-д, д.2",Банк ВТБ,Круглосуточно,56.0082744,37.4397918
"г. Лобня, ул.Маяковского, д.5а",Банк «Открытие»,Круглосуточно,56.0124045,37.4844365
"г. Лобня, ул.Деповская, д.1",Банк «Открытие»,Доступен в режиме работы места установки,56.0264007,37.4792254
"г. Лобня, ул.Ленина, д.9",Банк ВТБ,Круглосуточно,56.0123139,37.4820898
"г. Лобня, ул.Ленина, д.16",Банк ВТБ,Круглосуточно,56.0123167,37.476889
"г. Лобня, ул.Маяковского, д.4 Б",Банк ВТБ,Круглосуточно,56.0147236,37.4831148
"г. Лобня, ул.Горки-Киовские, вл.15",Банк ВТБ,Круглосуточно,56.029278,37.4612265
"г. Лобня, ул.Калинина, д.5",Банк ВТБ,Круглосуточно,56.0033518,37.4841142
"г. Лобня, ул.Маяковского, д.5",Банк ВТБ,Круглосуточно,56.0124045,37.4844365
"г. Лобня, ул.Катюшки, д.43",Банк ВТБ,Круглосуточно,56.0085642,37.4427255
"г. Лобня, ул.Краснополянская, д.46а",Банк ВТБ,Круглосуточно,56.0245291,37.4211895
"г. Лобня, ул.Ленина, д.19, корп. 1",Банк ВТБ,Круглосуточно,56.0119037,37.4791135
"г. Лобня, ул.Маяковского, д.1",Банк ВТБ,Круглосуточно,56.008438,37.4858268
"Московская обл., г.Лобня, ул.Циолковского, д.13а",Банк ВТБ,Доступен в режиме работы места установки,56.0140064,37.4621955
"Московская обл., г.Лобня, ул.Ленина, д.5",Банк ВТБ,Доступен в режиме работы места установки,56.0110966,37.4832443
"Московская обл., г.Лобня, ул.Батарейная, д.2",Банк ВТБ,Доступен в режиме работы места установки,56.0240901,37.4777687
"г. Лобня, ул.Горки-Киовские, д.15",Банк ВТБ,Круглосуточно,56.029278,37.4612265
"г. Балашиха, ул.Советская, д.2/9",Банк ВТБ,Доступен в режиме работы места установки,55.7953273,37.9348382
"г. Балашиха, ш.Леоновское, д.2",Банк ВТБ,Круглосуточно,55.7933025,37.9539301
"Московская область, г. Балашиха, шоссе Энтузиастов, 54А",Банк ВТБ,пн.-вс.: 09:00-18:00,55.795945,37.96337
"Московская область, г. Балашиха, ул. Свердлова, 1А",Банк ВТБ,пн.-вс.: 09:00-21:00,55.8182896,37.9652977
"Московская область, г. Балашиха, ул. Керамическая, стр. 1-Ж",Банк ВТБ,пн.-вс.: 10:00-18:00,55.7408518,37.9693313
"Московская область, г. Балашиха, шоссе Энтузиастов, 66А",Банк ВТБ,пн.-вс.: 10:00-21:00,55.796841,37.971143
"г. Балашиха, Центральная ул., 68",Банк ВТБ,пн.-вс.: 08:00-00:00,55.751771,37.951323
"Московская область, г. Балашиха, Кольцевая ул., 3, корп. 2",Газпромбанк,пн.-вс.: 07:00-00:00,55.822539,37.875631
"Московская область, г. Балашиха, ул. Свердлова, 20",Газпромбанк,пн.-вс.: 08:00-22:00,55.8231501,37.9712738
"г. Балашиха, мкр. Салтыковка, Носовихинское шоссе, вл.4",Газпромбанк,пн.-вс.: 10:00-21:00,55.750033,37.888325
"Московская область, г. Балашиха, шоссе Энтузиастов, 7/1",Газпромбанк,Круглосуточно,55.794836,37.932162
"г. Балашиха, Железнодорожный, Пролетарская ул., 2/2",Газпромбанк,пн.-вс.: 10:00-22:00,55.750282,38.00683
"г. Балашиха, Железнодорожный, ул.Советская, д.2",Кредит Европа Банк,Круглосуточно,55.7504207,38.0116418
"г. Балашиха, Железнодорожный, ул.Советская, д.2",СберБанк,Круглосуточно,55.7504207,38.0116418
"г. Балашиха, Железнодорожный, ул.Советская, д.5",Кредит Европа Банк,Круглосуточно,55.7514305,38.0099502
"г. Балашиха, Железнодорожный, ул.Центральная, д.44в",Московский Кредитный Банк,Круглосуточно,55.751989,37.949275
"г. Балашиха, просп. Ленина, д.57",Московский Кредитный Банк,Доступен в режиме работы места установки,55.7988054,37.9566943
"г. Балашиха, ш.Энтузиастов, вл.8",Московский Кредитный Банк,Круглосуточно,55.792827,37.91752
"г. Балашиха, Железнодорожный, ул.Центральная, д.44",Московский Кредитный Банк,Круглосуточно,55.751847,37.953012
"г. Балашиха, ш.Энтузиастов, вл.1",Московский Кредитный Банк,Круглосуточно,55.784212,37.872065
"г. Балашиха, мкр. ЦОВБ, д.20",Московский Кредитный Банк,Круглосуточно,55.7844847,37.8780456
"г. Балашиха, мкр. ЦОВБ, д.20",Райффайзенбанк,Круглосуточно,55.7844847,37.8780456
"г. Балашиха, мкр. Заря, ул.Гагарина, д.7/4",Московский Кредитный Банк,Круглосуточно,55.7575022,38.0842339
"г. Балашиха, ул.Свердлова, д.20",Московский Кредитный Банк,Доступен в режиме работы места установки,55.8231501,37.9712738
"г. Балашиха, ул.Карбышева, д.8",Московский Кредитный Банк,Доступен в режиме работы места установки,55.786121,37.971742
"г. Балашиха, мкр. Дзержинского, д.29",Московский Кредитный Банк,Доступен в режиме работы места установки,55.7782817,37.8950112
"г. Балашиха, мкр. Купавна, ул.Шоссейная, д.5",Московский Кредитный Банк,Круглосуточно,55.7531689,38.1160575
"г. Балашиха, ул.Звездная, д.8",Московский Кредитный Банк,Круглосуточно,55.8255304,37.9555193
"г. Балашиха, ул.Звездная, д.8",СберБанк,Круглосуточно,55.8255304,37.9555193
"г. Балашиха, ш.Энтузиастов, д.6",Московский Кредитный Банк,Доступен в режиме работы места установки,55.7951552,37.9209369
"г. Балашиха, Железнодорожный, пл.Привокзальная, д.2",Московский Кредитный Банк,Круглосуточно,55.7519643,38.0089289
"г. Балашиха, ш.Энтузиастов, д.80",Московский Кредитный Банк,Доступен в режиме работы места установки,55.7981,37.986475
"г. Балашиха, ш.Энтузиастов, д.80",СберБанк,Круглосуточно,55.7981,37.986475
"г. Балашиха, ул.Свердлова, д.25",Московский Кредитный Банк,Доступен в режиме работы места установки,55.8249544,37.970417
"г. Балашиха, ул.Владимирская, д.141, стр. 1",Московский Кредитный Банк,Круглосуточно,55.8077461,38.0563512
"г. Балашиха, Железнодорожный, ул.Автозаводская, д.52",Московский Кредитный Банк,Круглосуточно,55.7284717,38.0145972
"г. Балашиха, мкр. Железнодорожный, ул.Советская, д.60",Московский Кредитный Банк,Круглосуточно,55.7499711,38.0461665
"г. Балашиха, мкр. Северный, д.1",Почта Банк,Круглосуточно,55.794141,38.0142572
"г. Балашиха, мкр. Дзержинского, д.39",Почта Банк,Круглосуточно,55.776779,37.9013211
"г. Балашиха, мкр. Дзержинского, д.39",СберБанк,Круглосуточно,55.776779,37.9013211
"г. Балашиха, Саввино, ул.Пригородная, д.90",Почта Банк,Круглосуточно,55.724327,37.993499
"г. Балашиха, просп. Ленина, д.21",Почта Банк,Круглосуточно,55.7974438,37.9358803
"г. Балашиха, просп. Ленина, д.21",Альфа-Банк,Круглосуточно,55.7974438,37.9358803
"г. Балашиха, Железнодорожный, ул.Советская, д.9",Почта Банк,Круглосуточно,55.7515158,38.0121423
"г. Балашиха, Железнодорожный, ул.Советская, д.9",Промсвязьбанк,Круглосуточно,55.7515158,38.0121423
"г. Балашиха, Железнодорожный, ул.Советская, д.9",СберБанк,Круглосуточно,55.7515158,38.0121423
"г. Балашиха, Железнодорожный, ул.Советская, д.9",Автоторгбанк,Круглосуточно,55.7515158,38.0121423
"г. Балашиха, ул.Советская, д.19а",Почта Банк,Круглосуточно,55.8034708,37.9345431
"г. Балашиха, Железнодорожный, ул.Пролетарская, д.1/2",Почта Банк,Круглосуточно,55.749719,38.009597
"г. Балашиха, Железнодорожный, ш.Саввинское, д.4, корп. 1",Почта Банк,Круглосуточно,55.7436668,38.0124299
"г. Балашиха, ул.Пионерская, д.13",Почта Банк,Круглосуточно,55.7947521,37.9678549
"г. Балашиха, Железнодорожный, ул.Пролетарская, д.2",Промсвязьбанк,Круглосуточно,55.749547,38.007693
"г. Балашиха, Железнодорожный, ул.Пролетарская, д.2",СберБанк,Круглосуточно,55.749547,38.007693
"г. Балашиха, просп. Ленина, д.25",Промсвязьбанк,Круглосуточно,55.7977343,37.939099
"г. Балашиха, просп. Ленина, д.25",СберБанк,Круглосуточно,55.7977343,37.939099
"г. Балашиха, просп. Ленина, д.77",Промсвязьбанк,Круглосуточно,55.8006477,37.9750254
"г. Балашиха, ш.Энтузиастов, д.54а",Промсвязьбанк,Круглосуточно,55.795945,37.96337
"г. Балашиха, ш.Энтузиастов, д.54а",Росбанк,Круглосуточно,55.795945,37.96337
"г. Балашиха, ш.Энтузиастов, д.2",Промсвязьбанк,Круглосуточно,55.7851192,37.8713005
"г. Балашиха, ул.Звездная, д.7 Б",Промсвязьбанк,Круглосуточно,55.8286829,37.9536064
"г. Балашиха, Железнодорожный, ул.Советская, д.60",Промсвязьбанк,Круглосуточно,55.7499711,38.0461665
"г. Балашиха, Железнодорожный, ул.Советская, д.60",Райффайзенбанк,Круглосуточно,55.7499711,38.0461665
"г. Балашиха, Железнодорожный, ул.Советская, д.60",Автоторгбанк,Круглосуточно,55.7499711,38.0461665
"Московская обл., г.Балашиха, Железнодорожный, ул.Советская, д.9",Промсвязьбанк,Круглосуточно,55.7515158,38.0121423
"г. Балашиха, ш.Энтузиастов, д.44",Промсвязьбанк,Круглосуточно,55.7937568,37.9433569
"г. Балашиха, ул.Парковая, д.4а",Промсвязьбанк,Круглосуточно,55.7608191,37.9703965
"г. Балашиха, мкр. Гагарина, д.15",Промсвязьбанк,Круглосуточно,55.824,37.9214597
"г. Балашиха, мкр. 1 Мая, д.4",Промсвязьбанк,Доступен в режиме работы места установки,55.8092443,37.8413323
"г. Балашиха, ул.Советская, д.33",Промсвязьбанк,Круглосуточно,55.8154761,37.9524113
"Московская обл., г.Балашиха, западная коммунальная зона, ш.Энтузиастов, д.2",Промсвязьбанк,Круглосуточно,55.7850658,37.8712107
"г. Балашиха, ул.Дмитриева, д.34",Промсвязьбанк,Круглосуточно,55.8348666,37.934455
"г. Балашиха, ул.Дмитриева, д.34",СберБанк,Круглосуточно,55.8348666,37.934455
"г. Балашиха, ш.Балашихинское, д.16",Промсвязьбанк,Круглосуточно,55.822971,37.9297319
"г. Балашиха, ул.Третьяка, д.8",Райффайзенбанк,Круглосуточно,55.8230759,37.9518995
"г. Балашиха, Западная коммунальная зона, ш.Энтузиастов, д.12 Б",Райффайзенбанк,Круглосуточно,55.7883823,37.8861371
"г. Балашиха, ш.Энтузиастов, д.66",Райффайзенбанк,Круглосуточно,55.7961456,37.9713087
"г. Балашиха, ул.Чехова, д.3",Райффайзенбанк,Круглосуточно,55.7353024,38.0183592
"г. Балашиха, Западная коммунальная зона, ш.Энтузиастов, вл.1а",Россельхозбанк,Круглосуточно,55.7850805,37.8628477
"г. Балашиха, просп. Ленина, д.18",Русский Стандарт,Круглосуточно,55.7967172,37.9438732
"Московская обл., Западная коммунальная зона, ш.Энтузиастов, д.2",СберБанк,Круглосуточно,55.7850658,37.8712107
"г. Балашиха, просп. Ленина, д.31",СберБанк,Круглосуточно,55.7973107,37.940759
"г. Балашиха, Железнодорожный, ул.Пролетарская, д.2/2",СберБанк,Круглосуточно,55.750282,38.00683
"г. Балашиха, ул.Главная, д.22 Б",СберБанк,Доступен в режиме работы места установки,55.7465358,37.9910535
"г. Балашиха, ул.Фадеева, д.4а",СберБанк,Круглосуточно,55.7938225,37.9745524
"г. Балашиха, просп. Ленина, д.8",СберБанк,Круглосуточно,55.7966102,37.9335067
"г. Балашиха, мкр. Дзержинского, д.38",СберБанк,Доступен в режиме работы места установки,55.7766517,37.9003278
"г. Балашиха, ул.Солнечная, д.2",СберБанк,Доступен в режиме работы места установки,55.8203079,37.9568464
"г. Балашиха, Железнодорожный, ул.Колхозная, д.7",СберБанк,Доступен в режиме работы места установки,55.7459739,38.0229608
"г. Балашиха, мкр. Кучино, ул.Южная, д.3",СберБанк,Доступен в режиме работы места установки,55.749744,37.953201
"г. Балашиха, ш.Энтузиастов, д.48",СберБанк,Круглосуточно,55.79223,37.944865
"г. Балашиха, Кучино, ул.Центральная, д.40",СберБанк,Доступен в режиме работы места установки,55.7515879,37.9557435
"г. Балашиха, ш.Энтузиастов, д.36а",СберБанк,Круглосуточно,55.7937658,37.9392129
"г. Балашиха, Железнодорожный, ул.Автозаводская, д.36",СберБанк,Круглосуточно,55.727577,38.011933
"г. Балашиха, Железнодорожный, ул.Граничная, д.22, корп. 2",СберБанк,Круглосуточно,55.7462489,37.98337
"г. Балашиха, ш.Энтузиастов, д.50",СберБанк,Круглосуточно,55.794319,37.9599439
"г. Балашиха, Железнодорожный, ул.Пролетарская, д.7",СберБанк,Круглосуточно,55.744674,38.0089626
"г. Балашиха, Московский пр-д, д.9",СберБанк,Круглосуточно,55.808607,37.9797759
"г. Балашиха, ул.Свердлова, д.30",СберБанк,Доступен в режиме работы места установки,55.8273397,37.9735929
"г. Балашиха, ул.Советская, д.13",СберБанк,Круглосуточно,55.8008541,37.934449
"г. Балашиха, Железнодорожный, ул.Пролетарская, д.2, корп. 2",СберБанк,Круглосуточно,55.750282,38.00683
"г. Балашиха, мкр. ЦОВБ, д.21",СберБанк,Круглосуточно,55.7850521,37.8792267
"г. Балашиха, ул.Советская, д.3",Альфа-Банк,Круглосуточно,55.7959577,37.934037
"г. Балашиха, Железнодорожный, ш.Саввинское, д.10а",Альфа-Банк,Доступен в режиме работы места установки,55.7441489,38.0148755
"г. Балашиха, ул.Карла Маркса, д.3",Альфа-Банк,Круглосуточно,55.798787,37.9312309
"Московская область, г. Балашиха, ул. Дмитриева, д. 34",Банк Зенит,Доступен в режиме работы места установки,55.8348666,37.934455
"Московская область, г. Балашиха, мкр-н Дзержинского, 38",Банк Уралсиб,Доступен в режиме работы места установки,55.7766517,37.9003278
"Московская область, г. Балашиха, мкр-н 1 Мая, д. 4",Банк Уралсиб,Доступен в режиме работы места установки,55.8092443,37.8413323
"Московская область, г. Балашиха, мкр-н Керамик, ул. Керамическая, д. 1ж",Банк «Открытие»,Доступен в режиме работы места установки,55.7409943,37.9601032
"Московская область, г.Балашиха, просп. Ленина, 26",Банк «Открытие»,Доступен в режиме работы места установки,55.7971547,37.9494569
"Московская область, г. Балашиха, мкр-н ЦОВБ, д. 20",Банк «Открытие»,Доступен в режиме работы места установки,55.7844847,37.8780456
"Московская область, г. Балашиха, ул. Владимирская, 139",ББР Банк,Доступен в режиме работы места установки,55.8075097,38.0551835
"Московская область, г. Балашиха, мкр-н Железнодорожный, ул. Южная, д. 3, корп. 1",Банк ВТБ,Доступен в режиме работы места установки,55.7465326,38.0089536
"Московская область, г. Балашиха, мкр-н Салтыковка, шоссе Разинское, д. 5",Банк ВТБ,Доступен в режиме работы места установки,55.7603109,37.921147
"Московская область, г. Балашиха, просп. Ленина, д. 55в",Банк ВТБ,Доступен в режиме работы места установки,55.7982999,37.9554115
"Московская область, г. Балашиха, шоссе Энтузиастов, д. 1 Б",Банк ВТБ,Доступен в режиме работы места установки,55.7942949,37.9264739
"Московская область, г.Балашиха, ул.Звездная, 8",Банк ВТБ,Доступен в режиме работы места установки,55.8255304,37.9555193
"Московская область, г. Балашиха, мкр-н Железнодорожный, ул. Саввинская, д. 15",Банк ВТБ,Доступен в режиме работы места установки,55.7465326,38.0089536
"Московская область, г. Балашиха, мкр-н Железнодорожный, ул. Советская, д. 5",Газпромбанк,Доступен в режиме работы места установки,55.7514305,38.0099502
"Московская область, г. Балашиха, шоссе Энтузиастов, д. 13",Газпромбанк,Доступен в режиме работы места установки,55.795282,37.93916
"Московская область, г. Балашиха, мкр-н Железнодорожный, ул. Лесопарковая, д. 6",Газпромбанк,Доступен в режиме работы места установки,55.7530535,38.0068659
"Московская область, г. Балашиха, мкр-н Железнодорожный, ул. Граничная, д. 24",Газпромбанк,Доступен в режиме работы места установки,55.7465326,38.0089536
"Московская область, г. Балашиха, мкр-н Железнодорожный, ул. Адмирала Нахимова, д. 13",Газпромбанк,Доступен в режиме работы места установки,55.752278,38.1170256
"Московская область, г. Балашиха, мкр-н Железнодорожный, ул. Южная, д. 3",Газпромбанк,Доступен в режиме работы места установки,55.7465326,38.0089536
"Московская область, г. Балашиха, ул. Свердлова, д. 7",Кредит Европа Банк,Доступен в режиме работы места установки,55.820026,37.9672553
"Московская область, г. Балашиха, ул. Зеленая, д. 32",Московский Кредитный Банк,Доступен в режиме работы места установки,55.8080172,37.9439344
"Московская область, г. Балашиха, мкр-н Саввино, ул. Саввинская, д. 5а",Московский Кредитный Банк,Доступен в режиме работы места установки,55.7296963,38.0296874
"Московская область, г. Балашиха, ул. Свердлова, д. 30",Московский Кредитный Банк,Доступен в режиме работы места установки,55.8273397,37.9735929
"Московская область, г. Балашиха, просп. Ленина, д. 77",Московский Кредитный Банк,Доступен в режиме работы места установки,55.8006477,37.9750254
"Московская область, г. Балашиха, мкр-н Железнодорожный, ул. Советская, д. 60",Московский Кредитный Банк,Доступен в режиме работы места установки,55.7499711,38.0461665
"Московская область, г. Балашиха, мкр-н Павлино, д. 15",Московский Кредитный Банк,Доступен в режиме работы места установки,55.7279065,37.9747316
"Московская область, г.Балашиха, шоссе Новомилетское, д.2",Московский Кредитный Банк,Доступен в режиме работы места установки,55.7151151,38.0459914
"Московская область, г. Балашиха, ул. Некрасова, 12",Московский Кредитный Банк,Доступен в режиме работы места установки,55.7919175,37.9709156
"Московская область, г. Балашиха, мкр-н Железнодорожный, ул. Юбилейная, д. 2",Московский Кредитный Банк,Доступен в режиме работы места установки,55.742271,38.015733
"Московская область, г. Балашиха, шоссе Энтузиастов, д. 2",Московский Кредитный Банк,Доступен в режиме работы места установки,55.7851192,37.8713005
"Московская область, г. Балашиха, мкр-н Железнодорожный, ул. Пролетарская, д. 5а",Московский Кредитный Банк,Доступен в режиме работы места установки,55.748012,38.009678
"Московская область, г. Балашиха, мкр-н Железнодорожный, ул. Советская, д. 9",Московский Кредитный Банк,Доступен в режиме работы места установки,55.7515158,38.0121423
"г. Химки, просп. Юбилейный, д.9/1",Московский Кредитный Банк,Круглосуточно,55.8869777,37.4163129
"г. Химки, ш.Ленинградское, вл.24",МТС Банк,Доступен в режиме работы места установки,55.8977738,37.427272
"Московская обл., г. Химки, ул. Дружбы, 1А",Почта Банк,пн.-вс.: 10:00-21:00,55.8995993,37.4129611
"Московская обл., г. Химки, Юбилейный пр-кт, 36",Почта Банк,пн.-вс.: 10:00-20:00,55.887149,37.4214176
"Московская обл., г. Химки, Московская ул., 14А",Почта Банк,пн.-вс.: 10:00-22:00,55.8897888,37.4450432
"Московская область, г. Химки, пр-кт Мельникова, 2Б",Почта Банк,Круглосуточно,55.9011742,37.4074546
"г. Химки, ул.Бутакова, д.4",Почта Банк,Круглосуточно,55.8866094,37.4367587
"г. Химки, 8-й микрорайон, д.1, стр. 1",Почта Банк,Круглосуточно,55.910876,37.396093
"г. Химки, ул.Маяковского, д.23",Промсвязьбанк,Круглосуточно,55.8914941,37.4385112
"г. Химки, ш.Ленинградское, 23-й км (левая сторона)",Промсвязьбанк,Круглосуточно,55.9081246,37.4082253
"г. Химки, просп. Юбилейный, д.77",Промсвязьбанк,Круглосуточно,55.8967552,37.4048237
"г. Химки, просп. Юбилейный, д.40",Райффайзенбанк,Круглосуточно,55.8872484,37.419038
"г. Химки, просп. Юбилейный, д.60а",Райффайзенбанк,Круглосуточно,55.8902684,37.4135805
"г. Химки, ул.Ленинградская, вл.39, стр. 5",Райффайзенбанк,Круглосуточно,55.9078944,37.4160466
"Московская обл., ш.Ленинградское, 20 км",Райффайзенбанк,Круглосуточно,56.3669729,36.6881975
"г. Химки, ул.Панфилова, д.19",Райффайзенбанк,Круглосуточно,55.8815655,37.4329749
"г. Химки, ул.Панфилова, д.19",Банк ВТБ,Круглосуточно,55.8815655,37.4329749
"г. Химки, просп. Мельникова, д.2 Б",Райффайзенбанк,Круглосуточно,55.9011742,37.4074546
"г. Химки, мкр. Клязьма-Старбеево",Райффайзенбанк,Круглосуточно,55.9194503,37.4777978
"г. Химки, ул.Пролетарская, д.8/1",Райффайзенбанк,Круглосуточно,55.892392,37.4404807
"г. Химки, ш.Ленинградское, д.5",Райффайзенбанк,Круглосуточно,55.8887135,37.4335269
"г. Химки, ш.Ленинградское, д.5",Банк «Открытие»,Круглосуточно,55.8887135,37.4335269
"г. Химки, 8-й микрорайон, стр. 1",Росбанк,Круглосуточно,55.908389,37.402561
"г. Химки, 8-й микрорайон, стр. 1",СберБанк,Круглосуточно,55.908389,37.402561
"г. Химки, ш.Ленинградское, вл.5",Росбанк,Круглосуточно,55.8887135,37.4335269
"г. Химки, ш.Ленинградское, вл.5",СберБанк,Круглосуточно,55.8887135,37.4335269
"г. Химки, ул.Бурденко, д.1",Росбанк,Доступен в режиме работы места установки,55.9019691,37.448681
"г. Химки, ул.Бурденко, д.1",Банк ВТБ,Круглосуточно,55.9019691,37.448681
"г. Химки, ш.Ленинградское, вл.21",Россельхозбанк,Круглосуточно,55.9057087,37.4124719
"г. Химки, ш.Ленинградское, вл.7",Россельхозбанк,Круглосуточно,55.9064301,37.4107039
"г. Химки, ул.Молодежная, д.8",СберБанк,Круглосуточно,55.8818245,37.4187744
"Московская обл., г.Химки, 8-й микрорайон",СберБанк,Доступен в режиме работы места установки,55.908389,37.402561
"г. Химки, мкр. Сходня, ул.Горная, стр. 24а",СберБанк,Круглосуточно,55.957398,37.320553
"г. Химки, просп. Юбилейный, стр. 67а",СберБанк,Доступен в режиме работы места установки,55.8867777,37.4216444
"г. Химки, ул.Ленинградская, вл.16 Б",СберБанк,Круглосуточно,55.888119,37.438493
"г. Химки, ул.Ленинградская, вл.39, стр. 6",СберБанк,Круглосуточно,55.908372,37.4148647
"г. Химки, ул.Дружбы, стр. 1а",СберБанк,Круглосуточно,55.8995993,37.4129611
"г. Химки, просп. Юбилейный, д.51",СберБанк,Круглосуточно,55.8899893,37.41128
"г. Химки, мкр. ИКЕА, корп. 2",СберБанк,Круглосуточно,55.909842,37.398186
"г. Химки, ул.Московская, д.5",СберБанк,Круглосуточно,55.8926843,37.4491619
"г. Химки, ул.Пожарского, д.12, стр. 1",СберБанк,Круглосуточно,55.8917518,37.4789322
"г. Химки, ул.Молодежная, стр. 6а",СберБанк,Круглосуточно,55.8902703,37.405276
"г. Химки, ш.Ленинградское, 23 км",СберБанк,Круглосуточно,55.9081246,37.4082253
"г. Химки, ул.Московская, стр. 14а",СберБанк,Круглосуточно,55.8897888,37.4450432
"г. Химки, ул.Покровская, стр. 1",СберБанк,Круглосуточно,55.950146,37.448384
"г. Химки, мкр. Сходня, ул.Кирова, д.3, стр. 3",СберБанк,Круглосуточно,55.950237,37.297377
"г. Химки, мкр. Планерная, д.17",СберБанк,Доступен в режиме работы места установки,55.920346,37.37147
"г. Химки, ул.Библиотечная, д.2",СберБанк,Доступен в режиме работы места установки,55.8925859,37.4728686
"г. Химки, просп. Юбилейный, д.41а",СберБанк,Доступен в режиме работы места установки,55.8904309,37.4107317
"Московская обл., г.Химки, мкр. Сходня, ул.Чапаева, д.7",СберБанк,Доступен в режиме работы места установки,55.946809,37.298446
"г. Химки, мкр. Фирсановка, ул.Речная, д.2",СберБанк,Доступен в режиме работы места установки,55.960261,37.265684
"г. Химки, ул.Московская, д.3",СберБанк,Круглосуточно,55.8935076,37.45008
"г. Химки, ул.Академика Грушина, д.33",СберБанк,Круглосуточно,55.912173,37.453558
"г. Химки, просп. Юбилейный, д.60",СберБанк,Круглосуточно,55.8902684,37.4135664
"г. Химки, просп. Юбилейный, д.50",СберБанк,Круглосуточно,55.8879292,37.4167244
"г. Химки, ул.Московская, д.14",СберБанк,Круглосуточно,55.8945063,37.4489189
"г. Химки, ул.Ленинградская, д.29",СберБанк,Круглосуточно,55.903302,37.420365
"г. Химки, ул.Ленинградская, д.29",Банк ВТБ,Круглосуточно,55.903302,37.420365
"г. Химки, 8-й микрорайон, корп. 2",СберБанк,Круглосуточно,55.909842,37.398186
"г. Химки, 8-й микрорайон, корп. 2",Альфа-Банк,Круглосуточно,55.909842,37.398186
"г. Химки, 8-й микрорайон, корп. 2",Банк «Открытие»,Круглосуточно,55.909842,37.398186
"г. Химки, ул.Панфилова, д.19, стр. 2",Альфа-Банк,Круглосуточно,55.8815655,37.4329749
"г. Химки, ул.9 Мая, д.20, стр. 1",Банк ВТБ,Круглосуточно,55.903448,37.415802
"г. Химки, 8-й микрорайон",Банк ВТБ,Круглосуточно,55.908389,37.402561
"г. Химки, ул.Молодежная, вл.8",Банк ВТБ,Круглосуточно,55.8818245,37.4187744
"г. Химки, ул.Рабочая, д.2а, корп. 31",Банк ВТБ,Круглосуточно,55.9001445,37.4399313
"г. Химки, ул.Дружбы, д.1а",Банк ВТБ,Круглосуточно,55.8995993,37.4129611
"Московская область, г. Химки, ул. Панфилова, д. 21/1",Банк ВТБ,Доступен в режиме работы места установки,55.8802668,37.4332874
"Московская область, г. Химки, ул. Лавочкина, 13",Банк ВТБ,Доступен в режиме работы места установки,55.8917388,37.4219936
"Московская область, г.Химки, просп. Мельникова, 10",Банк ВТБ,Доступен в режиме работы места установки,55.902717,37.404591
"Московская область, г.Химки, ул.Академика Грушина, 33",Банк ВТБ,Доступен в режиме работы места установки,55.912173,37.453558
"Московская область, г.Химки, ул.Ленинградская, 1",Банк ВТБ,Доступен в режиме работы места установки,55.883459,37.444566
"Московская область, г. Химки, ул. Московская, 15",Банк ВТБ,Доступен в режиме работы места установки,55.888982,37.4455318
"Московская область, г. Химки, ул. Дружбы, 1",Банк ВТБ,Доступен в режиме работы места установки,55.8993006,37.4088294
"Московская область, г. Химки, ул. Молодежная, 6",Банк ВТБ,Доступен в режиме работы места установки,55.8812599,37.4196777
"Московская область, г. Химки, шоссе Шереметьевское, 2",Банк ВТБ,Доступен в режиме работы места установки,55.982905,37.416197
"Московская область, г.Химки, ул.Ленинградская, 29",Банк ВТБ,Доступен в режиме работы места установки,55.903302,37.420365
"Московская область, г. Химки, мкр-н Новогорск, ул. Соколовская, д. 1",Банк ВТБ,Доступен в режиме работы места установки,55.891875,37.347458
"Московская область, г. Химки, шоссе Новокуркинское 34",Банк ВТБ,Доступен в режиме работы места установки,55.902096,37.394233
"Московская область, г. Химки, шоссе Шереметьевское, д. 28",Банк ВТБ,Доступен в режиме работы места установки,55.983454,37.431154
"Московская область, г. Химки, 8-й микрорайон, д. 1",Банк ВТБ,Доступен в режиме работы места установки,55.910876,37.396093
"Московская область, г. Химки, шоссе Ленинградское, д. 5",Банк ВТБ,Доступен в режиме работы места установки,55.8887135,37.4335269
"Московская область, г. Химки, шоссе Шереметьевское, д. 3",Банк ВТБ,Доступен в режиме работы места установки,55.9621764,37.4161271
"Московская область, г. Химки, шоссе Ленинградское, д. 39 вл. 6",Банк ВТБ,Доступен в режиме работы места установки,55.9071233,37.4154269
"Московская область, г.Химки, мкр-н Новогорск, ул.Заречная, вл.11, корп. 105",Газпромбанк,Доступен в режиме работы места установки,55.904518,37.360546
"Московская область, г.Химки, шоссе Новосходненское, д.140",Газпромбанк,Доступен в режиме работы места установки,55.938082,37.314059
"Московская область, г. Химки, ул. Победы, 1",Газпромбанк,Доступен в режиме работы места установки,55.8993658,37.4563962
"Московская область, г. Химки, ул. Московская, д. 14А",Газпромбанк,Доступен в режиме работы места установки,55.8897888,37.4450432
"Московская область, г. Химки, 8-й микрорайон, д. 0, корп. 2",Газпромбанк,Доступен в режиме работы места установки,55.909842,37.398186
"Московская область, г. Химки, 8-й микрорайон, д. 4",Газпромбанк,Доступен в режиме работы места установки,55.913202,37.396102
"Московская область, г. Химки, ул. Маяковского, 14",Газпромбанк,Доступен в режиме работы места установки,55.8937689,37.4422601
"Московская область, г. Химки, ул. 9 Мая, стр. 1, вл. 20",Кредит Европа Банк,Доступен в режиме работы места установки,55.903448,37.415802
"Московская область, г. Химки, просп. Юбилейный, д. 41а",Московский Кредитный Банк,Доступен в режиме работы места установки,55.8904309,37.4107317
"Московская область, г. Химки, просп. Юбилейный, 60",Московский Кредитный Банк,Доступен в режиме работы места установки,55.8902684,37.4135664
"Московская область, г. Химки, ул. Московская, 32",Московский Кредитный Банк,Доступен в режиме работы места установки,55.8885683,37.4436711
"Московская область, г. Химки, ул. Совхозная, 11, корп. 5",Московский Кредитный Банк,Доступен в режиме работы места установки,55.8975509,37.4777523
"Московская область, г. Химки, мкр-н Сходня, ул. Кирова, д. 1",Московский Кредитный Банк,Доступен в режиме работы места установки,55.950408,37.29832
"Московская область, г. Химки, шоссе Ленинградское, д. 21",Московский Кредитный Банк,Доступен в режиме работы места установки,55.9057087,37.4124719
"Московская область, г. Подольск, Вокзальная пл., 8",Московский Кредитный Банк,пн.-вс.: 10:00-22:00,55.4327864,37.565024
"Московская область, г. Подольск, Большая Серпуховская ул., 45",Московский Кредитный Банк,пн.-вс.: 09:00-20:00 пн.-вс.: 09:00-23:00,55.420157,37.54771
"г. Подольск, просп. Юных Ленинцев, д.1и",Московский Кредитный Банк,Круглосуточно,55.468045,37.559236
"г. Подольск, просп. Юных Ленинцев, д.1и",СберБанк,Круглосуточно,55.468045,37.559236
"г. Подольск, ул.Свердлова, д.21",Московский Кредитный Банк,Круглосуточно,55.42382,37.5391269
"г. Подольск, ул.Комсомольская, д.1",Московский Кредитный Банк,Круглосуточно,55.427882,37.550109
"г. Подольск, ул.Комсомольская, д.1",СберБанк,Круглосуточно,55.427882,37.550109
"г. Подольск, ул.Комсомольская, д.38",МТС Банк,Круглосуточно,55.4289373,37.5542121
"г. Подольск, Климовск, ул.Молодежная, д.11",Почта Банк,Круглосуточно,55.3856052,37.5453925
"г. Подольск, Климовск, ул.Молодежная, д.11",Росбанк,Круглосуточно,55.3856052,37.5453925
"г. Подольск, Климовск, ул.Молодежная, д.11",Банк ВТБ,Круглосуточно,55.3856052,37.5453925
"г. Подольск, Нефтебазовский пр-д, д.5",Почта Банк,Круглосуточно,55.464552,37.5709092
"г. Подольск, ш.Домодедовское, д.22",Почта Банк,Доступен в режиме работы места установки,55.4347501,37.6119052
"г. Подольск, ул.43-й Армии, д.19",Почта Банк,Круглосуточно,55.4205296,37.4943758
"г. Подольск, ш.Рязановское, д.9",Почта Банк,Круглосуточно,55.4726174,37.5539536
"г. Подольск, Климовск, ул.Молодежная, д.15",Почта Банк,Круглосуточно,55.3877182,37.5482198
"г. Подольск, Климовск, ул.Молодежная, д.15",Газпромбанк,Круглосуточно,55.3877182,37.5482198
"г. Подольск, ул.Кирова, д.38, корп. 2",Почта Банк,Круглосуточно,55.4285119,37.5362207
"г. Подольск, мкр. Львовский, Больничный пр-д, д.4а, стр. 3",Почта Банк,Доступен в режиме работы места установки,55.3152507,37.5272975
"г. Подольск, ул.Кирова, д.38, корп. 1",Почта Банк,Круглосуточно,55.4285119,37.5362207
"г. Подольск, Климовск, пл.Октябрьская, д.2",Почта Банк,Доступен в режиме работы места установки,55.3754637,37.5388046
"г. Подольск, ул.Кирова, д.38, корп. 18",Почта Банк,Круглосуточно,55.4285119,37.5362207
"г. Подольск, Климовск, ул.Победы, д.3",Промсвязьбанк,Круглосуточно,55.3585836,37.518166
"г. Подольск, ул.Кирова, д.65",Промсвязьбанк,Доступен в режиме работы места установки,55.4191649,37.5101784
"г. Подольск, ул.Кирова, д.65",СберБанк,Круглосуточно,55.4191649,37.5101784
"г. Подольск, ул.Багратиона, д.19",Промсвязьбанк,Круглосуточно,55.4021214,37.5595862
"г. Подольск, ул.Свердлова, д.26",Промсвязьбанк,Круглосуточно,55.4243005,37.538271
"г. Подольск, ул.Свердлова, д.26",Альфа-Банк,Круглосуточно,55.4243005,37.538271
"г. Подольск, ул.Кирова, д.74",Райффайзенбанк,Доступен в режиме работы места установки,55.4226098,37.5155403
"г. Подольск, пл.Вокзальная, д.8",Райффайзенбанк,Доступен в режиме работы места установки,55.4327864,37.565024
"г. Подольск, Климовск, просп. 50 лет Октября, д.21",Райффайзенбанк,Доступен в режиме работы места установки,55.3732617,37.5474407
"г. Подольск, Климовск, Больничный пр-д, д.1",Райффайзенбанк,Доступен в режиме работы места установки,55.3689923,37.5162343
"г. Подольск, ул.Большая Серпуховская, д.5",Райффайзенбанк,Круглосуточно,55.429241,37.54674
"г. Подольск, ул.Пионерская, д.14",Райффайзенбанк,Круглосуточно,55.4131642,37.5390766
"г. Подольск, ул.Железнодорожная, д.2",Росбанк,Доступен в режиме работы места установки,55.4191686,37.5699983
"г. Подольск, ул.Ленинградская, д.7",Россельхозбанк,Круглосуточно,55.4264866,37.5011043
"г. Подольск, ул.Ленинградская, д.7",СберБанк,Круглосуточно,55.4264866,37.5011043
"г. Подольск, ул.Ленинградская, д.7",Банк ВТБ,Круглосуточно,55.4264866,37.5011043
"г. Подольск, просп. Революционный, д.54",СберБанк,Круглосуточно,55.432895,37.550815
"г. Подольск, ул.Комсомольская, д.1, корп. 1",СберБанк,Доступен в режиме работы места установки,55.428168,37.553882
"г. Подольск, ул.Кирова, д.31а",СберБанк,Круглосуточно,55.4248703,37.5280997
"г. Подольск, ул.Февральская, д.65",СберБанк,Круглосуточно,55.4332771,37.5455797
"г. Подольск, просп. Ленина, д.158",СберБанк,Круглосуточно,55.4319701,37.5456494
"г. Подольск, ул.Академика Доллежаля, д.7, корп. 1",СберБанк,Круглосуточно,55.4221844,37.4868143
"Московская обл., г.Подольск, просп. Революционный, д.52/39",СберБанк,Круглосуточно,55.4326454,37.5519172
"г. Подольск, Климовск, ул.Театральная, д.6",СберБанк,Круглосуточно,55.3733998,37.5420461
"г. Подольск, ул.Свердлова д.26",СберБанк,Круглосуточно,55.4243005,37.538271
"г. Подольск, ул.Ватутина, д.81",СберБанк,Круглосуточно,55.4140941,37.5286721
"г. Подольск, ул.Высотная, д.7",СберБанк,Круглосуточно,55.4179231,37.5207085
"г. Подольск, ул.Большая Серпуховская, д.34/2",СберБанк,Круглосуточно,55.419018,37.546336
"г. Подольск, Климовск, ул.Симферопольская, д.35",СберБанк,Круглосуточно,55.367965,37.532888
"г. Подольск, ул.Юбилейная, д.32а",СберБанк,Круглосуточно,55.4307657,37.4987051
"г. Подольск, просп. Юных Ленинцев, д.61",СберБанк,Круглосуточно,55.481924,37.564401
"г. Подольск, ул.Клемента Готвальда, д.8",СберБанк,Круглосуточно,55.4245638,37.5277858
"г. Подольск, просп. Революционный, д.2/14",СберБанк,Круглосуточно,55.4323067,37.5619233
"Московская обл., г.Подольск, Парадный пр-д, д.2/7",Абсолют Банк,Доступен в режиме работы места установки,55.4370395,37.5626328
"г. Подольск, Климовск, ул.Первомайская, д.3",Авангард,Доступен в режиме работы места установки,55.367617,37.5349798
"г. Подольск, ул.Большая Серпуховская, д.54",Альфа-Банк,Доступен в режиме работы места установки,55.411506,37.549471
"г. Подольск, ул.Кирова, д.61",Альфа-Банк,Доступен в режиме работы места установки,55.4214762,37.5186389
"г. Подольск, ул.Ленинградская, д.18",Банк «Открытие»,Доступен в режиме работы места установки,55.4256227,37.4940706
"г. Подольск, просп. Ленина, д.109/61",Банк «Открытие»,Доступен в режиме работы места установки,55.4324739,37.5476152
"г. Подольск, ул.Свердлова, д.35/20",Банк ВТБ,Доступен в режиме работы места установки,55.4196549,37.5355819
"г. Подольск, Южный пр-д, д.7",Банк ВТБ,Доступен в режиме работы места установки,55.4074983,37.5652157
"г. Подольск, Климовск, ул.Ленина, д.18/2",Банк ВТБ,Доступен в режиме работы места установки,55.3595552,37.5208609
"г. Подольск, мкр. Львовский, ул.Магистральная, д.7",Банк ВТБ,Доступен в режиме работы места установки,55.3061074,37.5259108
"г. Подольск, ул.Бронницкая, д.3",Банк ВТБ,Доступен в режиме работы места установки,55.4324885,37.5744855
"г. Подольск, ул.Комсомольская, д.59",Банк ВТБ,Круглосуточно,55.432168,37.543228
"г. Подольск, просп. Юных Ленинцев, б/н",Банк ВТБ,Круглосуточно,55.474153,37.563287
"г. Подольск, ул.Поливановская, д.9",Газпромбанк,Круглосуточно,55.4134443,37.5891023
"г. Подольск, просп. Революционный, д.62",Газпромбанк,Доступен в режиме работы места установки,55.433456,37.5495578
"г. Подольск, ул.Большая Серпуховская, д.45",Кредит Европа Банк,Круглосуточно,55.420157,37.54771
"г. Подольск, ул.Рабочая, д.32/24",Московский Кредитный Банк,Доступен в режиме работы места установки,55.4353987,37.5608657
"Московская обл., г.Подольск, ул.Кирова, д.29",Московский Кредитный Банк,Круглосуточно,55.4254616,37.5295493
"Московская область, г. Подольск, ул. Кирова, д. 4",Московский Кредитный Банк,Доступен в режиме работы места установки,55.4306389,37.541991
"Московская область, г. Подольск, шоссе Рязановское, 9",Московский Кредитный Банк,Доступен в режиме работы места установки,55.4726174,37.5539536
"Московская область, г. Подольск, мкр-н Кузнечики, ул. Генерала Варенникова, д. 2",Московский Кредитный Банк,Доступен в режиме работы места установки,55.4189092,37.4893094
"Московская область, г. Подольск, шоссе Рязановское, д. 13",Московский Кредитный Банк,Доступен в режиме работы места установки,55.4736116,37.557785
"Московская область, г. Подольск, мкр-н Климовск, ул. Молодежная, д. 15",Московский Областной Банк,Доступен в режиме работы места установки,55.3877182,37.5482198
"Московская область, г. Подольск, ул. Ленинградская, д. 21",Московский Областной Банк,Доступен в режиме работы места установки,55.4241919,37.4936535
"Московская область, г.Подольск, шоссе Рязановское, 1",ОТП Банк,Доступен в режиме работы места установки,55.4731997,37.5605771
"Московская область, г. Подольск, шоссе Симферопольское, д. 20а, стр. 1",Почта Банк,Доступен в режиме работы места установки,55.4389322,37.5703482
"Московская область, г.Подольск, ул.Кирова, 65",Почта Банк,Доступен в режиме работы места установки,55.4191649,37.5101784
"Московская область, г. Подольск, ул. Клемента Готвальда, д. 1/42",Почта Банк,Доступен в режиме работы места установки,55.4195354,37.5332641
"Московская область, г.Подольск, ул.Комсомольская, 1",Почта Банк,Доступен в режиме работы места установки,55.427882,37.550109
"Московская область, г. Подольск, ул. Правды 3",Почта Банк,Доступен в режиме работы места установки,55.4105117,37.5647322
"Московская область, г. Подольск, ул. Мраморная 2",Райффайзенбанк,Доступен в режиме работы места установки,55.4393133,37.5663377
"Московская область, г. Подольск, бул. 65-летия Победы 5 корп. 2",Райффайзенбанк,Доступен в режиме работы места установки,55.4184331,37.4814028
"Московская область, г. Подольск, ул. Ленинградская 6",Райффайзенбанк,Доступен в режиме работы места установки,55.4281134,37.5022683
"Московская область, г.Подольск, ул.Большая Серпуховская 5",Райффайзенбанк,Доступен в режиме работы места установки,55.429241,37.54674
"Московская область, г. Подольск, мкр-н Климовск, ул. Победы, д. 3",Росбанк,Доступен в режиме работы места установки,55.3585836,37.518166
"Московская область, г. Подольск, мкр-н Климовск, ул. Заводская, д. 2",Банк Россия,Доступен в режиме работы места установки,55.3784166,37.5476125
"Московская область, г. Подольск, ул. Подольских Курсантов, 2",Банк Россия,Доступен в режиме работы места установки,55.417184,37.5462189
"Московская область, г. Подольск, ул. Ленинградская, 7",Банк Россия,Доступен в режиме работы места установки,55.4264866,37.5011043
"Московская область, г. Подольск, мкр-н Климовск, пр-д Бережковский, д. 10",Банк Россия,Доступен в режиме работы места установки,55.3694181,37.5581441
"Московская область, г.Подольск, ул.Комсомольская, 3",Банк Россия,Доступен в режиме работы места установки,55.429139,37.549965
"Московская область, г.Подольск, просп. Ленина, 8",Банк Россия,Доступен в режиме работы места установки,55.4485855,37.5512478
"г. Королев, ул.Циолковского, д.27",Банк Россия,Круглосуточно,55.920378,37.8267249
"г. Королев, ул.Коммунальная, д.1",Банк Россия,Круглосуточно,55.916243,37.8461756
"г. Королев, ул.Коммунальная, д.1",Банк ВТБ,Круглосуточно,55.916243,37.8461756
"г. Королев, ул.Коммунальная, д.1",Промсвязьбанк,Круглосуточно,55.916243,37.8461756
"г. Королев, ул.Коммунальная, д.1",Росбанк,Круглосуточно,55.916243,37.8461756
"Московская область, г. Королев, ул. Фрунзе, 4",Русский Стандарт,пн.-вс.: 08:00-21:00,55.9237988,37.8220851
"Московская область, г. Королев, пр-кт Космонавтов, 12В",СберБанк,пн.-вс.: 09:00-22:00,55.9171523,37.8665157
"Московская область, г. Королев, пр-кт Космонавтов, 33, корп. 1",СберБанк,Круглосуточно,55.9105792,37.8676313
"г. Королев, просп. Королева, д.22",СберБанк,Круглосуточно,55.9214699,37.8512084
"г. Королев, просп. Королева, д.28а",СберБанк,Круглосуточно,55.9225122,37.855874
"г. Королев, просп. Королева, д.28а",Почта Банк,Круглосуточно,55.9225122,37.855874
"г. Королев, ул.Калинина, д.2",СберБанк,Круглосуточно,55.9242258,37.8155067
"г. Королев, мкр. Юбилейный, ул.Маяковского, д.30",СберБанк,Доступен в режиме работы места установки,55.9293259,37.8512987
"г. Королев, ул.Пионерская, д.4",СберБанк,Круглосуточно,55.913528,37.8075052
"г. Королев, просп. Космонавтов, д.29/12, корп. 1",Агропромкредит,Круглосуточно,55.912163,37.86832
"г. Королев, ул.Терешковой, д.12",Агропромкредит,Круглосуточно,55.9148281,37.8122229
"г. Королев, ул.Горького, д.3а",Банк «Открытие»,Круглосуточно,55.913746,37.859604
"г. Королев, ул.Горького, д.3а",Газпромбанк,Круглосуточно,55.913746,37.859604
"г. Королев, Юбилейный, ул.Пионерская, д.1/4",Банк «Открытие»,Круглосуточно,55.9323944,37.8437416
"г. Королев, ул.Грабина, д.10",Банк ВТБ,Доступен в режиме работы места установки,55.9261078,37.8160304
"г. Королев, просп. Королева, д.5д, корп. 1",Банк ВТБ,Круглосуточно,55.9219946,37.8395503
"г. Королев, просп. Королева, д.5д, корп. 1",Россельхозбанк,Круглосуточно,55.9219946,37.8395503
"г. Королев, просп. Космонавтов, д.33, корп. 1",Банк ВТБ,Круглосуточно,55.9105792,37.8676313
"г. Королев, ул.Ленина, д.27",Банк ВТБ,Круглосуточно,55.9154243,37.806792
"г. Королев, мкр. Юбилейный, ул.Лесная, д.12",Банк ВТБ,Круглосуточно,55.9340441,37.8432496
"г. Королев, мкр. Юбилейный, ул.Лесная, д.12",Банк «Открытие»,Круглосуточно,55.9340441,37.8432496
"Московская обл., г.Королев, просп. Космонавтов, д.27 Б",Банк ВТБ,Круглосуточно,55.913486,37.868362
"г. Королев, ул.Горького, д.33а",Банк ВТБ,Круглосуточно,55.9133418,37.8643697
"г. Королев, ул.Пионерская, д.30а",Газпромбанк,Круглосуточно,55.907142,37.828021
"г. Королев, мкр. Юбилейный, ул.Тихонравова, д.28а",Московский Кредитный Банк,Круглосуточно,55.9369915,37.8389114
"г. Королев, ул.Дзержинского, д.23/2",Московский Кредитный Банк,Круглосуточно,55.9126001,37.8566688
"г. Королев, ул.Циолковского, д.23а",Московский Кредитный Банк,Круглосуточно,55.9205447,37.8242434
"г. Королев, ул.Фрунзе, д.21",Московский Кредитный Банк,Доступен в режиме работы места установки,55.9233292,37.8234882
"Московская обл., г.Королев, просп. Королева, д.11",Почта Банк,Доступен в режиме работы места установки,55.9223495,37.8526097
"г. Королев, ул.Горького, д.2а",Почта Банк,Доступен в режиме работы места установки,55.9127482,37.8576777
"г. Королев, просп. Королева, д.20",Почта Банк,Круглосуточно,55.9212587,37.8484771
"г. Королев, просп. Королева, д.20",Райффайзенбанк,Круглосуточно,55.9212587,37.8484771
"г. Королев, просп. Королева, д.20",Банк ВТБ,Круглосуточно,55.9212587,37.8484771
"г. Королев, ул.Калинина, д.15",Почта Банк,Доступен в режиме работы места установки,55.9198979,37.8153118
"Московская обл., г.Королев, ул.Тихонравова, д.32а",Почта Банк,Доступен в режиме работы места установки,55.9369364,37.8410334
"г. Королев, просп. Космонавтов, д.12а",Промсвязьбанк,Круглосуточно,55.9171523,37.8665157
"г. Королев, просп. Космонавтов, д.12а",Авангард,Круглосуточно,55.9171523,37.8665157
"г. Королев, мкр. Болшево, ул.Пушкинская, д.17",Райффайзенбанк,Круглосуточно,55.9318051,37.840531
"г. Королев, ул.Фрунзе, д.4",Россельхозбанк,Круглосуточно,55.9237988,37.8220851
"г. Королев, ул.50-летия ВЛКСМ, д.4г",Русский Стандарт,Доступен в режиме работы места установки,55.9202167,37.8440025
"г. Королев, ул.Силикатная, д.11",СберБанк,Круглосуточно,55.9021142,37.8709378
"г. Королев, ул.Богомолова, д.4",Альфа-Банк,Круглосуточно,55.9158879,37.8098681
"г. Королев, просп. Королева, д.1",Банк «Открытие»,Круглосуточно,55.9210914,37.8349236
"г. Королев, ул.Пионерская, д.30, корп. 6",Банк «Открытие»,Круглосуточно,55.908464,37.829638
"г. Королев, ул.Ленина, д.4, корп. 49",Банк «Открытие»,Доступен в режиме работы места установки,55.9215361,37.8071851
"Московская область, г.Королев, просп. Космонавтов, д.34 Б",Банк ВТБ,Доступен в режиме работы места установки,55.909386,37.865982
"Московская область, г. Королев, просп. Королева, 20",Банк ВТБ,Доступен в режиме работы места установки,55.9212587,37.8484771
"Московская область, г.Королев, пл.Станционная, 20",Банк ВТБ,Доступен в режиме работы места установки,55.9274717,37.8595206
"Московская область, г. Королев, просп. Космонавтов, д. 20а",Банк ВТБ,Доступен в режиме работы места установки,55.9143125,37.8666062
"Московская область, г. Королев, ул. Калинина, 2",Газпромбанк,Доступен в режиме работы места установки,55.9242258,37.8155067
"Московская область, г. Королев, ул. Пионерская 30",Газпромбанк,Доступен в режиме работы места установки,55.9077847,37.8268146
"Московская область, г.Королев, просп. Королева 6г",Газпромбанк,Доступен в режиме работы места установки,55.9179036,37.8389807
"г. Коломна, пл.Восстания, д.7",Газпромбанк,Круглосуточно,55.0841645,38.805014
"г. Коломна, ул.Астахова, д.4",Газпромбанк,Круглосуточно,55.064426,38.74577
"г. Коломна, ул.Гражданская, д.4",Московский Кредитный Банк,Круглосуточно,55.0956117,38.7615427
"г. Коломна, ул.Дзержинского, д.25",Московский Кредитный Банк,Доступен в режиме работы места установки,55.0758389,38.7901691
"г. Коломна, просп. Окский, д.2а",Авангард,Круглосуточно,55.0831027,38.8017082
"г. Коломна, ул.Щуровская, д.2",Банк Уралсиб,Круглосуточно,55.0652661,38.8417132
"Московская обл., М5 100 км",Банк Уралсиб,Круглосуточно,53.560896,102.4706934
"г. Коломна, ул.Астахова, д.5",Банк Уралсиб,Круглосуточно,55.0684196,38.7576281
"г. Коломна, ул.Астахова, д.5",Банк ВТБ,Круглосуточно,55.0684196,38.7576281
"г. Коломна, ул.Октябрьской революции, д.366/2",Банк Уралсиб,Круглосуточно,55.0828741,38.801108
"г. Коломна, ул.Октябрьской революции, д.239",Банк «Открытие»,Доступен в режиме работы места установки,55.0981791,38.7616896
"г. Коломна, ул.Спирина, д.1а",Банк ВТБ,Круглосуточно,55.057415,38.748672
"г. Коломна, ул.Комсомольская, д.13",Банк ВТБ,Доступен в режиме работы места установки,55.1011444,38.7633359
"г. Коломна, ул.Вокзальная, д.3а",Банк ВТБ,Круглосуточно,55.0866842,38.8027937
"г. Коломна, ул.Дзержинского, д.98",Банк ВТБ,Круглосуточно,55.0838222,38.7649823
"г. Коломна, ул.Астахова, д.4, корп. 4",Банк ВТБ,Круглосуточно,55.0660935,38.7463255
"г. Коломна, пл.Советская, д.8",Банк ВТБ,Круглосуточно,55.0956926,38.763926
"г. Коломна, пл.Советская, д.8",Московский Кредитный Банк,Круглосуточно,55.0956926,38.763926
"г. Коломна, ул.Октябрьской революции, д.350",Банк ВТБ,Круглосуточно,55.0852046,38.7978312
"г. Коломна, ул.Партизан, д.42",Банк ВТБ,Доступен в режиме работы места установки,55.0885812,38.8032993
"г. Коломна, Парковый пр-д, д.5",Банк ВТБ,Круглосуточно,55.0881384,38.7797487
"г. Коломна, ул.Ленина, д.67а",Банк ВТБ,Круглосуточно,55.0836162,38.7789525
"г. Коломна, ул.Октябрьской Революции, д.362",Банк ВТБ,Круглосуточно,55.0841284,38.8004986
"г. Коломна, ул.Октябрьской Революции, д.362",Московский Кредитный Банк,Круглосуточно,55.0841284,38.8004986
"г. Коломна, ул.Яна Грунта, д.18",Газпромбанк,Круглосуточно,55.1022105,38.7610548
"г. Коломна, ул.Октябрьская, д.88а",Газпромбанк,Круглосуточно,55.05943,38.8596665
"г. Коломна, бул. 800-летия Коломны, д.15",Газпромбанк,Доступен в режиме работы места установки,55.0595316,38.7535688
"г. Коломна, пл.Советская д.5",Кредит Европа Банк,Доступен в режиме работы места установки,55.0923773,38.7682807
"г. Коломна, просп. Кирова, д.48",Кредит Европа Банк,Доступен в режиме работы места установки,55.0788438,38.7609749
"г. Коломна, ул.Октябрьской Революции, д.188",Московский Кредитный Банк,Доступен в режиме работы места установки,55.102217,38.7531962
"г. Коломна, просп. Октябрьской революции, д.342",Московский Кредитный Банк,Доступен в режиме работы места установки,55.0859741,38.7944566
"г. Коломна, пл.Восстания, д.6",Московский Кредитный Банк,Круглосуточно,55.0847157,38.8028762
"г. Коломна, ул.Макеева, д.3, корп. 2",Московский Кредитный Банк,Круглосуточно,55.0844632,38.7601318
"г. Коломна, ул.Октябрьской Революции, д.379",Московский Кредитный Банк,Круглосуточно,55.0836266,38.8071881
"г. Коломна, ул.Цементников, д.1",Московский Кредитный Банк,Круглосуточно,55.0601092,38.8395723
"г. Коломна, ул.Астахова, д.55",Почта Банк,Доступен в режиме работы места установки,55.059629,38.735046
"г. Коломна, ул.Гражданская, д.10",Почта Банк,Круглосуточно,55.0965672,38.760214
"г. Коломна, ул.Ленина, д.69",Почта Банк,Круглосуточно,55.0840968,38.7774293
"Московская область, г.Коломна, ул.Октябрьской Революции, 301",Промсвязьбанк,Доступен в режиме работы места установки,55.0869129,38.7953086
"Московская область, г.Коломна, ул.Гаврилова, 4",Промсвязьбанк,Доступен в режиме работы места установки,55.0562909,38.7468263
"г. Электросталь, просп. Ленина, д.1в",Промсвязьбанк,Круглосуточно,55.8060091,38.4358597
"Московская обл., г. Электросталь, пр-кт Ленина, 0/10",Промсвязьбанк,пн.-вс.: 10:00-22:00,55.799217,38.4383226
"г. Электросталь, ул.Горького, д.32",Райффайзенбанк,Круглосуточно,55.7634837,38.456577
"г. Электросталь, ул.Победы, д.5",Авангард,Круглосуточно,55.7702804,38.4382852
"г. Электросталь, ул.Карла Маркса, д.30а",Альфа-Банк,Круглосуточно,55.7975484,38.4656339
"г. Электросталь, ул.Карла Маркса, д.30а",Банк ВТБ,Круглосуточно,55.7975484,38.4656339
"г. Электросталь, ул.Корешкова, д.3",Банк «Открытие»,Круглосуточно,55.7845766,38.4474304
"г. Электросталь, ул.Корешкова, д.3",Банк ВТБ,Круглосуточно,55.7845766,38.4474304
"г. Электросталь, ул.Николаева, д.17а",Банк «Открытие»,Круглосуточно,55.785928,38.440366
"г. Электросталь, ш.Фрязевское",Банк «Открытие»,Круглосуточно,55.7750351,38.4337807
"г. Электросталь, ул.Ялагина, д.4",Банк ВТБ,Доступен в режиме работы места установки,55.7707323,38.4338547
"г. Электросталь, просп. Ленина, д.30/13",Банк ВТБ,Круглосуточно,55.7915054,38.4411745
"г. Электросталь, ул.Советская, д.5",Банк ВТБ,Круглосуточно,55.7907704,38.4350085
"г. Электросталь, просп. Ленина, д.8",Банк ВТБ,Круглосуточно,55.8000373,38.437396
"г. Электросталь, ул.Мира, д.8",Банк ВТБ,Круглосуточно,55.7814707,38.4430778
"г. Электросталь, ул.Мира, д.5",Банк ВТБ,Доступен в режиме работы места установки,55.7805551,38.4450349
"г. Электросталь, ул.Карла Маркса, д.12",Банк ВТБ,Круглосуточно,55.788226,38.4695715
"г. Электросталь, ул.Ялагина, д.3",Кредит Европа Банк,Круглосуточно,55.7679089,38.4328774
"г. Электросталь, ул.Тевосяна, д.25",Кредит Европа Банк,Круглосуточно,55.7791336,38.445548
"г. Серпухов, ш.Борисовское, д.5",Кредит Европа Банк,Круглосуточно,54.9167019,37.4284351
"г. Серпухов, ш.Борисовское, д.5",Банк ВТБ,Круглосуточно,54.9167019,37.4284351
"г. Серпухов, ш.Борисовское, д.1",Московский Кредитный Банк,Круглосуточно,54.9174399,37.426552
"г. Серпухов, ш.Борисовское, д.1",СберБанк,Круглосуточно,54.9174399,37.426552
"г. Серпухов, ш.Борисовское, д.1",Банк ВТБ,Круглосуточно,54.9174399,37.426552
"г. Серпухов, ш.Борисовское, д.1",Почта Банк,Круглосуточно,54.9174399,37.426552
"г. Серпухов, ш.Борисовское, д.1",Альфа-Банк,Круглосуточно,54.9174399,37.426552
"г. Серпухов, ул.Советская, д.70",Московский Кредитный Банк,Круглосуточно,54.9206934,37.4262021
"г. Серпухов, ул.Ворошилова, д.214",Московский Кредитный Банк,Круглосуточно,54.9353418,37.4504268
"г. Серпухов, ул.Ворошилова, д.214",СберБанк,Доступен в режиме работы места установки,54.9353418,37.4504268
"г. Серпухов, ул.Чернышевского, д.29",Московский Кредитный Банк,Круглосуточно,54.9100526,37.3882362
"г. Серпухов, ул.Чернышевского, д.29",Почта Банк,Доступен в режиме работы места установки,54.9100526,37.3882362
"г. Серпухов, ул.Советская, д.69/22",Московский Кредитный Банк,Доступен в режиме работы места установки,54.9243565,37.4325945
"г. Серпухов, ул.Ворошилова, д.184",Почта Банк,Круглосуточно,54.9268497,37.4492307
"г. Серпухов, мкр. Ивановские дворики, д.1",Почта Банк,Круглосуточно,54.9400326,37.4006966
"г. Серпухов, ул.Ворошилова, д.126а",Росбанк,Круглосуточно,54.9195971,37.4333825
"г. Серпухов, ул.Бригадная, д.17",Россельхозбанк,Круглосуточно,54.8979245,37.3911632
"г. Серпухов, ул.Советская, д.88",Русский Стандарт,Круглосуточно,54.9236748,37.4349349
"г. Серпухов, ул.Бригадная, д.7",СберБанк,Круглосуточно,54.8984991,37.3955542
"г. Серпухов, ул.Ворошилова, д.169",СберБанк,Доступен в режиме работы места установки,54.932453,37.4494404
"г. Серпухов, ул.Чернышевского, д.27",СберБанк,Доступен в режиме работы места установки,54.9101068,37.3891303
"г. Серпухов, ш.Московское, д.55",СберБанк,Круглосуточно,54.9421679,37.4051614
"г. Серпухов, ул.Крупской, д.10а",СберБанк,Круглосуточно,54.922997,37.4293578
"г. Серпухов, ул.Чехова, д.26",Банк «Открытие»,Круглосуточно,54.9158529,37.4166649
"г. Серпухов, мкр. Ивановские дворики",Банк ВТБ,Круглосуточно,54.9400326,37.4006966
"Московская обл., г.Серпухов, ш.Московское, д.55",Банк ВТБ,Доступен в режиме работы места установки,54.9421679,37.4051614
"г. Серпухов, бул. 65 лет Победы, д.4",Банк ВТБ,Круглосуточно,54.9440224,37.4029676
"г. Серпухов, бул. 65 лет Победы, д.4",Банк «Открытие»,Круглосуточно,54.9440224,37.4029676
"г. Серпухов, ул.Ворошилова, д.139",Банк ВТБ,Круглосуточно,54.9240188,37.4416007
"г. Серпухов, ул.Ворошилова, д.139",Райффайзенбанк,Круглосуточно,54.9240188,37.4416007
"г. Серпухов, ул.Ворошилова, д.169—171",Банк ВТБ,Круглосуточно,54.932453,37.4494404
"г. Серпухов, ш.Московское, д.96а",Газпромбанк,Доступен в режиме работы места установки,54.9430123,37.4078897
"г. Серпухов, ш.Борисовское, д.17а",Газпромбанк,Круглосуточно,54.9153515,37.4357698
"г. Серпухов, ш.Московское, д.49а",Московский Кредитный Банк,Круглосуточно,54.9376585,37.4043705
"г. Серпухов, ул.Советская, д.64",Московский Кредитный Банк,Круглосуточно,54.9200438,37.4242093
"г. Серпухов, ул.Советская, д.89",Промсвязьбанк,Доступен в режиме работы места установки,54.92957,37.441556
"г. Серпухов, ул.Советская, д.111",Райффайзенбанк,Круглосуточно,54.9227477,37.430011
"г. Серпухов, ул.Советская, д.78",Райффайзенбанк,Доступен в режиме работы места установки,54.9214855,37.4297595
"г. Орехово-Зуево, ул.Ленина, д.78",Банк ВТБ,Круглосуточно,55.8080796,38.9873813
"г. Орехово-Зуево, ул.Ленина, д.78",Газпромбанк,Доступен в режиме работы места установки,55.8080796,38.9873813
"г. Орехово-Зуево, ул.Ленина, д.78",Московский Кредитный Банк,Круглосуточно,55.8080796,38.9873813
"Московская область, г. Орехово-Зуево, ул. Якова Флиера, 4",Банк ВТБ,пн.-вс.: 10:00-22:00,55.8046725,38.9742991
"г. Орехово-Зуево, бул. Центральный, д.3",Банк ВТБ,Доступен в режиме работы места установки,55.8048454,38.9808416
"г. Орехово-Зуево, бул. Центральный, д.3",Московский Кредитный Банк,Круглосуточно,55.8048454,38.9808416
"г. Орехово-Зуево, ул.Бирюкова, д.4а",Банк ВТБ,Круглосуточно,55.8133513,38.9661968
"г. Орехово-Зуево, ул.Бирюкова, д.4а",Банк ВТБ,Доступен в режиме работы места установки,55.8133513,38.9661968
"г. Орехово-Зуево, ул.Егорьевская, д.8",Банк ВТБ,Круглосуточно,55.7924288,38.9704553
"г. Орехово-Зуево, ул.Егорьевская, д.1",Банк ВТБ,Круглосуточно,55.7947608,38.9725893
"г. Орехово-Зуево, ул.Якова Флиера, д.2",Банк ВТБ,Круглосуточно,55.803937,38.9733527
"г. Орехово-Зуево, ш.Малодубенское, д.2а",Банк ВТБ,Круглосуточно,55.8242774,38.9648882
"г. Орехово-Зуево, ул.Северная, д.59а",Банк ВТБ,Круглосуточно,55.8308278,38.9743531
"г. Орехово-Зуево, пл.Октябрьская, д.2",Банк ВТБ,Доступен в режиме работы места установки,55.8068281,38.9803759
"г. Орехово-Зуево, ул.Северная, д.1",Банк ВТБ,Круглосуточно,55.8174874,38.9888037
"г. Орехово-Зуево, ул.Северная, д.1",Московский Кредитный Банк,Круглосуточно,55.8174874,38.9888037
"г. Орехово-Зуево, ул.Пролетарская, д.18",Банк ВТБ,Круглосуточно,55.8018715,39.0011329
"г. Орехово-Зуево, ул.Вокзальная, д.19",Банк ВТБ,Доступен в режиме работы места установки,55.7951017,38.9741894
"г. Орехово-Зуево, ул.Гагарина, д.1",Газпромбанк,Доступен в режиме работы места установки,55.8063961,38.9706181
"г. Орехово-Зуево, бул. Центральный, д.7",Газпромбанк,Доступен в режиме работы места установки,55.8026829,38.9770094
"г. Орехово-Зуево, ул.Вокзальная, д.4",Газпромбанк,Доступен в режиме работы места установки,55.7969305,38.9764842
"г. Орехово-Зуево, Юбилейный пр-д, д.8",Кредит Европа Банк,Круглосуточно,55.8078659,38.9680597
"Московская обл., г.Орехово-Зуево, ул.Ленина, д.78",Московский Кредитный Банк,Круглосуточно,55.8080796,38.9873813
"Московская обл., г.Орехово-Зуево, ул.Ленина, д.44а",Московский Кредитный Банк,Доступен в режиме работы места установки,55.8020213,38.9812046
"Московская обл., г.Орехово-Зуево, ул.Якова Флиера, д.4",Московский Кредитный Банк,Доступен в режиме работы места установки,55.8046725,38.9742991
"г. Орехово-Зуево, ул.Галочкина, д.2",Московский Кредитный Банк,Круглосуточно,55.8137202,38.9751045
"Московская обл., Орехово-Зуевский р-н, п.Пригородный",Московский Кредитный Банк,Круглосуточно,55.8418652,38.9660363
"г. Орехово-Зуево, ул.Якова Флиера, д.4",Московский Кредитный Банк,Круглосуточно,55.8046725,38.9742991
"г. Орехово-Зуево, ул.Володарского, д.29",Московский Кредитный Банк,Круглосуточно,55.808597,38.9659408
"г. Орехово-Зуево, ул.Ленина, д.46",Московский Кредитный Банк,Доступен в режиме работы места установки,55.803094,38.981772
"г. Орехово-Зуево, ул.Набережная, д.12",Московский Кредитный Банк,Доступен в режиме работы места установки,55.8191174,39.0028499
"г. Орехово-Зуево, ул.Ленина, д.15",Московский Кредитный Банк,Доступен в режиме работы места установки,55.797397,38.973819
"г. Орехово-Зуево, ул.Урицкого, д.58",Московский Кредитный Банк,Круглосуточно,55.8133995,38.9689095
"Московская область, г. Орехово-Зуево, пл. Октябрьская, 2",Московский Кредитный Банк,Доступен в режиме работы места установки,55.8068281,38.9803759
"Московская область, г. Орехово-Зуево, ул. Урицкого, 92",Московский Кредитный Банк,Доступен в режиме работы места установки,55.8225436,38.9664699
"Московская область, г. Орехово-Зуево, ул. Пролетарская, 20а",Московский Кредитный Банк,Доступен в режиме работы места установки,55.8016195,39.0027153
"Московская область, г. Орехово-Зуево, ул. Дзержинского, 34",МТС Банк,Доступен в режиме работы места установки,55.794204,38.927667
"Московская область, г.Орехово-Зуево, ул.Торфобрикетная, 42",Почта Банк,Доступен в режиме работы места установки,55.8196987,39.0265735
"Московская область, г.Орехово-Зуево, ул.Пролетарская, 18",Авангард,Доступен в режиме работы места установки,55.8018715,39.0011329
"Московская область, г. Орехово-Зуево, ул. Зеленая, д. 26",Авангард,Доступен в режиме работы места установки,55.796975,39.0136866
"г. Ногинск, трасса М7 «Волга», 51-й км",Альфа-Банк,Круглосуточно,55.8686133,38.4622104
"г. Ногинск, ул.Ильича, стр. 6/29",Альфа-Банк,Круглосуточно,55.884413,38.481806
"г. Ногинск, ул.Декабристов, д.9",Альфа-Банк,Доступен в режиме работы места установки,55.8647121,38.4396217
"г. Ногинск, ул.Комсомольская, д.26",Альфа-Банк,Круглосуточно,55.85276,38.444942
"г. Ногинск, ул.Комсомольская, д.26",Кредит Европа Банк,Круглосуточно,55.85276,38.444942
"г. Ногинск, ул.Трудовая, д.11",Альфа-Банк,Доступен в режиме работы места установки,55.85354,38.4406629
"г. Ногинск, ул.Советской Конституции, д.2а",Банк «Открытие»,Круглосуточно,55.87788,38.461967
"г. Ногинск, ул.1-я Прудовая, д.1",Банк ВТБ,Круглосуточно,55.8725616,38.4319643
"г. Ногинск, ул.Рогожская, д.64",Банк ВТБ,Круглосуточно,55.8573256,38.4434605
"г. Ногинск, ул.Соборная, д.12",Банк ВТБ,Круглосуточно,55.8531545,38.441991
"г. Ногинск, ул.1-я Ревсобраний, д.1",Банк ВТБ,Круглосуточно,55.8604803,38.46678
"г. Ногинск, ул.3-го Интернационала, д.76",Газпромбанк,Круглосуточно,55.8543508,38.4352753
"г. Ногинск, ул.Соборная, д.12в",Газпромбанк,Круглосуточно,55.8531545,38.441991
"г. Ногинск, ул.3-го Интернационала, д.74",Газпромбанк,Доступен в режиме работы места установки,55.8544562,38.4364753
"г. Ногинск, ул.3-го Интернационала, д.72",Газпромбанк,Круглосуточно,55.8549321,38.4379461
"г. Ногинск, ш.Горьковское, 51 км",Кредит Европа Банк,Круглосуточно,55.8686133,38.4622104
"г. Ногинск, ш.Горьковское, 51 км",Крокус-Банк,Круглосуточно,55.8686133,38.4622104
"г. Ногинск, ул.3-го Интернационала, д.44",Крокус-Банк,Круглосуточно,55.8575956,38.4454305
"Московская область, г. Щелково, ул. Пушкина, 2А",Крокус-Банк,пн.-вс.: 09:00-22:00,55.9221756,37.9767876
"г. Щелково, просп. Пролетарский, д.8а",Крокус-Банк,Круглосуточно,55.922061,38.000776
"г. Щелково, ул.Институтская, вл.5",Крокус-Банк,Доступен в режиме работы места установки,55.903509,38.053291
"г. Щелково, ул.Краснознаменская, д.1",Московский Кредитный Банк,Круглосуточно,55.9163931,37.9914454
"г. Щелково, ул.Радиоцентр-5, д.7а",Московский Кредитный Банк,Круглосуточно,55.900587,38.068563
"г. Щелково, ул.Парковая, д.7, стр. 1",Московский Кредитный Банк,Круглосуточно,55.9197088,37.988086
"г. Щелково, ул.Талсинская, д.23",Московский Кредитный Банк,Круглосуточно,55.9274267,37.9861187
"г. Щелково, ул.Талсинская, д.23",НС Банк,Круглосуточно,55.9274267,37.9861187
"г. Щелково, ул.Талсинская, д.23",Промсвязьбанк,Круглосуточно,55.9274267,37.9861187
"г. Щелково, просп. Пролетарский, д.10",Московский Кредитный Банк,Доступен в режиме работы места установки,55.9239319,38.0014205
"г. Щелково, просп. Пролетарский, д.10",Почта Банк,Круглосуточно,55.9239319,38.0014205
"г. Щелково, просп. Пролетарский, д.10",Альфа-Банк,Круглосуточно,55.9239319,38.0014205
"г. Щелково, мкр. Богородский, вл.9",Московский Кредитный Банк,Доступен в режиме работы места установки,55.939706,37.974725
"г. Щелково, мкр. Богородский, вл.9",Райффайзенбанк,Круглосуточно,55.939706,37.974725
"г. Щелково, ул.Бахчиванджи, д.5а",Московский Кредитный Банк,Круглосуточно,55.910527,38.0591216
"г. Щелково, ул.Центральная, д.17",Московский Кредитный Банк,Круглосуточно,55.9187534,37.9847032
"г. Щелково, ул.Центральная, д.17",Почта Банк,Круглосуточно,55.9187534,37.9847032
"г. Щелково, ул.Центральная, д.17",Промсвязьбанк,Круглосуточно,55.9187534,37.9847032
"г. Щелково, ул.Институтская, д.27а",Московский Кредитный Банк,Доступен в режиме работы места установки,55.902333,38.055079
"г. Щелково, пл.Ленина, д.1",Московский Кредитный Банк,Доступен в режиме работы места установки,55.9210478,37.9930991
"г. Щелково, ул.Краснознаменская, д.6",Московский Кредитный Банк,Круглосуточно,55.915428,37.9966698
"г. Щелково, просп. Пролетарский, д.18",Московский Областной Банк,Доступен в режиме работы места установки,55.9294982,38.0040079
"г. Щелково, просп. Пролетарский, д.18",Альфа-Банк,Круглосуточно,55.9294982,38.0040079
"г. Щелково, просп. Пролетарский, д.7",МТС Банк,Круглосуточно,55.9170858,37.9953774
"г. Щелково, просп. Пролетарский, д.7",Банк «Открытие»,Доступен в режиме работы места установки,55.9170858,37.9953774
"г. Щелково, просп. Пролетарский, д.1/1а",Почта Банк,Круглосуточно,55.9135844,37.9933506
"г. Щелково, просп. Пролетарский, д.20",Почта Банк,Круглосуточно,55.9315761,38.005892
"г. Щелково, мкр. Потаповский, д.1, корп. 1",Почта Банк,Круглосуточно,55.909706,38.050902
"г. Щелково, ул.Гагарина, д.3",Промсвязьбанк,Круглосуточно,55.9069484,38.0641397
"г. Щелково, пл.Ленина, д.2а",Райффайзенбанк,Круглосуточно,55.921342,37.9918442
"г. Щелково, пл.Ленина, д.2",Райффайзенбанк,Доступен в режиме работы места установки,55.9207781,37.990811
"г. Щелково, ш.Фряновское, д.1",Райффайзенбанк,Круглосуточно,55.928113,38.00807
"г. Щелково, ул.Пушкина, д.22",Росбанк,Круглосуточно,55.9221756,37.9767876
"г. Щелково, ул.Талсинская, д.1",Россельхозбанк,Круглосуточно,55.924942,37.996796
"г. Щелково-4, ул.Беляева, д.23",СберБанк,Круглосуточно,55.8830278,38.0803668
"г. Щелково, ул.Фабричная д.1",СберБанк,Круглосуточно,55.913974,38.012705
"г. Щелково, ул.Советская, д.16, стр. 1",СберБанк,Круглосуточно,55.9131944,37.9946525
"г. Щелково, ул.Радиоцентр-5, д.9а",Альфа-Банк,Круглосуточно,55.898079,38.06178
"г. Щелково, ул.Комсомольская, д.5",Банк «Открытие»,Круглосуточно,55.9289474,37.9933432
"г. Щелково, ул.Талсинская, д.3",Банк ВТБ,Доступен в режиме работы места установки,55.924983,37.9932281
"Московская обл., г.Красногорск, ш.Волоколамское, д.3, стр. 1",Газпромбанк,Круглосуточно,55.8183648,37.3383963
"Московская обл., г.Красногорск, ш.Ильинское, д.14, корп. 1",Кредит Европа Банк,Круглосуточно,55.8041415,37.3227781
"Московская область, г. Красногорск, ул. 50лет Октября, 12",Московский Кредитный Банк,пн.-вс.: 09:00-22:00,55.8178845,37.3110589
"Московская область, г. Красногорск, ул. Новая Опалиха, 16",Московский Кредитный Банк,"пн.-пт.: 07:00-00:00 сб., вс.: 07:00-22:00",55.834204,37.25645
"Московская область, г. Красногорск, Знаменская ул., 5",Московский Кредитный Банк,пн.-вс.: 10:00-22:00,55.818882,37.346739
"Московская область, г. Красногорск, Волоколамское шоссе , 3, стр. 1",Московский Кредитный Банк,пн.-вс.: 10:00-22:00,55.8183648,37.3383963
"Московская область, г. Красногорск, ул. Ленина, 38Б",Московский Кредитный Банк,Круглосуточно,55.8338648,37.2989288
"г. Красногорск, бул. Строителей, д.4",Московский Кредитный Банк,Круглосуточно,55.8145346,37.3854783
"г. Красногорск, ул.Комсомольская, д.45",Московский Кредитный Банк,Круглосуточно,55.8171537,37.3112245
"г. Красногорск, ул.Знаменская, д.9",Московский Кредитный Банк,Круглосуточно,55.819029,37.344152
"г. Красногорск, ул.Ленина, д.2",Московский Кредитный Банк,Круглосуточно,55.8194927,37.3202397
"г. Красногорск, ул.Ленина, д.2",Банк ВТБ,Круглосуточно,55.8194927,37.3202397
"г. Красногорск, ул.Речная, д.8",Московский Кредитный Банк,Круглосуточно,55.8318205,37.3316126
"г. Красногорск, ул.Знаменская, д.5",Почта Банк,Круглосуточно,55.818882,37.346739
"г. Красногорск, ул.Знаменская, д.5",Райффайзенбанк,Круглосуточно,55.818882,37.346739
"г. Красногорск, бул. Строителей, д.4, корп. 1",Почта Банк,Круглосуточно,55.8144587,37.3859232
"г. Красногорск, ул.Ленина, д.25а",Почта Банк,Круглосуточно,55.82713,37.31201
"г. Красногорск, ул.Ленина, д.37",Райффайзенбанк,Круглосуточно,55.8331871,37.3028548
"г. Красногорск, ул.Заводская, д.26",Райффайзенбанк,Доступен в режиме работы места установки,55.8107837,37.3238283
"г. Красногорск, ш.Новорижское, 5-й км",Райффайзенбанк,Круглосуточно,55.8317203,37.3295266
"г. Красногорск, бул. Подмосковный, д.8",Райффайзенбанк,Круглосуточно,55.8206252,37.3686554
"Московская обл., г.Красногорск, 66-й км МКАД",Росбанк,Круглосуточно,55.814836,37.39046
"Московская обл., г.Красногорск, ул.Знаменская, д.5",Росбанк,Круглосуточно,55.818882,37.346739
"г. Красногорск, ул.Международная, д.16",Росбанк,Доступен в режиме работы места установки,55.8221395,37.3876903
"г. Красногорск, ул.Международная, д.6",Росбанк,Доступен в режиме работы места установки,55.8172897,37.387628
"г. Красногорск, ул.Международная, д.20",Росбанк,Доступен в режиме работы места установки,55.8267342,37.3890577
"г. Красногорск, ул.Международная, д.18",Россельхозбанк,Доступен в режиме работы места установки,55.8244626,37.3889896
"г. Красногорск, ул.Международная, д.12",Альфа-Банк,Доступен в режиме работы места установки,55.8209453,37.3861988
"г. Красногорск, ул.Международная, д.12",Банк ВТБ,Круглосуточно,55.8209453,37.3861988
"г. Красногорск, бул. Космонавтов, д.1",Банк Уралсиб,Круглосуточно,55.8343495,37.2721056
"г. Красногорск, бул. Южный, д.6",Банк Уралсиб,Круглосуточно,55.8058887,37.3223953
"г. Красногорск, ул.Ленина, д.35а",Банк Уралсиб,Круглосуточно,55.8295476,37.3082078
"г. Красногорск, ул.Ленина, д.35а",Альфа-Банк,Круглосуточно,55.8295476,37.3082078
"г. Красногорск, ул.Ленина, д.35а",Банк ВТБ,Круглосуточно,55.8295476,37.3082078
"г. Красногорск, ул.Школьная, д.9",Банк Уралсиб,Круглосуточно,55.820152,37.3294531
"г. Красногорск, бул. Подмосковный, д.13",Банк «Открытие»,Круглосуточно,55.8236014,37.3738856
"г. Красногорск, бул. Подмосковный, д.9",Банк ВТБ,Круглосуточно,55.8219708,37.3698193
"г. Красногорск, ул.Ленина, д.63",Банк ВТБ,Круглосуточно,55.8365276,37.2956953
"г. Красногорск, ул.Ленина, д.63",Газпромбанк,пн.—вс.: 10:00—06:00,55.8365276,37.2956953
"г. Красногорск, ул.Спасская, д.1а",Банк ВТБ,Круглосуточно,55.8276049,37.3688657
"г. Красногорск, ул.50 лет Октября, д.12",Банк ВТБ,Круглосуточно,55.8178845,37.3110589
"г. Красногорск, ул.Ленина, д.13",Банк ВТБ,Круглосуточно,55.8257539,37.314691
"г. Красногорск, ул.Комсомольская, д.3а",Банк ВТБ,Доступен в режиме работы места установки,55.8181567,37.3222139
"г. Красногорск, ул.Успенская, д.5",Банк ВТБ,Круглосуточно,55.8333353,37.2910275
"г. Красногорск, ул.Успенская, д.5",Газпромбанк,Круглосуточно,55.8333353,37.2910275
"г. Красногорск, бул. Подмосковный, д.1",Генбанк,Круглосуточно,55.8196586,37.3642709
"г. Красногорск, ул.Ленина, д.29",Кредит Европа Банк,Доступен в режиме работы места установки,55.8281218,37.31057
"г. Красногорск, ул.Вокзальная, д.27",Московский Кредитный Банк,Доступен в режиме работы места установки,55.815357,37.3491509
"г. Красногорск, мкр. Опалиха, ул.Новая Московская, д.5а",Московский Кредитный Банк,Доступен в режиме работы места установки,55.8252231,37.2454743
"г. Красногорск, ул.Карбышева, д.19а",Авангард,Доступен в режиме работы места установки,55.8379996,37.3008443
"г. Красногорск, ул.Железнодорожная, д.24",Альфа-Банк,Доступен в режиме работы места установки,55.8131554,37.3184143
"г. Красногорск, ш.Волоколамское, д.3, стр. 1",Банк ВТБ,Круглосуточно,55.8183648,37.3383963
"г. Красногорск, ул.Комсомольская, д.23",Банк ВТБ,Круглосуточно,55.8171865,37.318737
"г. Красногорск, бул. Строителей, стр. 5",Банк ВТБ,Круглосуточно,55.8139809,37.3839986
"г. Красногорск, ул.Циолковского, д.6",Кредит Европа Банк,Доступен в режиме работы места установки,55.8182443,37.3245375
"Московская обл., г.Красногорск, ул.Спасская, д.1, корп. 1",Московский Кредитный Банк,Круглосуточно,55.82765,37.37015
"Московская область, г. Красногорск, ул. Жуковского, 7",Московский Кредитный Банк,Доступен в режиме работы места установки,55.815564,37.324569
"Московская область, г.Красногорск, шоссе Ильинское, 4",Московский Кредитный Банк,Доступен в режиме работы места установки,55.8137763,37.3457659
"Московская область, г. Красногорск, ул. Советская, 15",Московский Кредитный Банк,Доступен в режиме работы места установки,55.8270697,37.3233422
"г. Домодедово, ш.Каширское, стр. 3а",МТС Банк,Круглосуточно,55.4363283,37.7664984
"г. Домодедово, ш.Каширское, стр. 3а",Банк ВТБ,Круглосуточно,55.4363283,37.7664984
"Московская обл., г.Домодедово, аэропорт «Домодедово», стр. 1",Почта Банк,Круглосуточно,55.414279,37.9003863
"Московская обл., г. Домодедово, пр-кт Академика Туполева, 2",Почта Банк,пн.-вс.: 09:00-21:00,55.4166035,37.835348
"Московская обл., г. Домодедово, Каширское шоссе , 7",Почта Банк,пн.-вс.: 09:00-22:00,55.4476029,37.7648554
"г. Домодедово, ул.25 лет Октября, д.9",Банк ВТБ,Круглосуточно,55.430988,37.7428538
"Московская обл., аэропорт «Домодедово», д.6",Банк ВТБ,Круглосуточно,55.414279,37.9003863
"г. Домодедово, ш.Каширское, 43 км",Банк ВТБ,Круглосуточно,55.4363283,37.7664984
"Московская обл., 33 км а/д М4 «Дон», левая сторона",Банк ВТБ,Круглосуточно,55.472759,37.7505884
"Московская обл., аэропорт «Домодедово», стр. 1",Банк ВТБ,Круглосуточно,55.414279,37.9003863
"г. Домодедово, ш.Каширское, д.29",Московский Кредитный Банк,Круглосуточно,55.4363283,37.7664984
"г. Домодедово, ш.Каширское, д.29",Банк ВТБ,Круглосуточно,55.4363283,37.7664984
"г. Домодедово, ш.Каширское, д.3а",Московский Кредитный Банк,Круглосуточно,55.4520735,37.7631534
"г. Домодедово, ш.Каширское, д.3а",Банк ВТБ,Круглосуточно,55.4520735,37.7631534
"г. Домодедово, ш.Каширское, д.3а",Газпромбанк,Круглосуточно,55.4520735,37.7631534
"Московская обл., г.Домодедово, ул.Гагарина, д.37",Московский Кредитный Банк,Круглосуточно,55.4512179,37.7458272
"г. Домодедово, ш.Каширское, д.99 Б, корп. 1",Московский Кредитный Банк,Круглосуточно,55.4240654,37.774583
"г. Домодедово, ул.Дачная, д.34",Московский Кредитный Банк,Круглосуточно,55.4500648,37.7536612
"г. Домодедово, ул.Гагарина, д.37",Московский Кредитный Банк,Круглосуточно,55.4512179,37.7458272
"г. Домодедово, ул.Лунная, д.11",Московский Кредитный Банк,Круглосуточно,55.426186,37.7555
"Московская обл., 38-й км трасса А105",Московский Кредитный Банк,Круглосуточно,55.4363283,37.7664984
"г. Домодедово, мкр. Западный, ул.Дружбы, д.6, корп. 1",Почта Банк,Круглосуточно,55.422028,37.759425
"г. Домодедово, ул.Кирова, д.13, корп. 1",Почта Банк,Круглосуточно,55.437235,37.751008
